VERTEX2 0 4.78 -5.84 -1.69
ROBOTLASER1 0 -1.570796 3.141593 0.017453 50.000000 0.100000 0 180 81.83 3.36 3.34 81.83 81.83 7.74 7.70 81.83 81.83 81.83 10.22 10.22 13.47 10.13 5.73 5.71 5.68 5.60 5.59 5.63 13.03 9.28 6.41 81.83 4.83 81.83 4.79 81.83 4.85 81.83 3.99 3.97 3.98 81.83 81.83 4.05 3.99 81.83 81.83 81.83 81.83 81.83 81.83 81.83 81.83 81.83 81.83 81.83 3.23 81.83 81.83 81.83 81.83 81.83 2.96 2.94 2.93 81.83 2.84 2.81 2.77 2.75 2.73 2.71 2.69 2.66 2.60 2.58 2.67 2.70 2.72 2.79 2.83 2.87 2.89 2.93 81.83 2.77 2.78 2.73 2.68 2.67 3.01 2.95 2.90 2.86 2.83 2.79 2.77 2.74 2.58 2.54 2.53 2.52 2.55 2.56 2.56 2.56 2.59 2.63 2.64 2.78 3.48 5.66 5.63 5.60 5.56 5.53 5.52 3.57 3.57 4.89 4.88 4.96 5.41 4.98 5.04 5.38 5.37 4.48 4.28 4.11 4.04 4.04 4.08 4.12 4.16 4.21 5.45 5.46 5.48 5.49 5.51 5.52 5.54 5.03 4.88 4.83 4.85 4.91 4.87 4.88 4.91 4.95 4.99 5.75 5.80 5.86 5.88 5.18 5.13 5.14 4.77 4.77 5.09 4.81 4.54 4.53 1.97 1.98 1.95 1.93 1.90 1.88 1.86 1.84 1.82 1.80 1.66 1.62 1.60 1.58 1.55 1.52 1.47 1.48 1.49 1.54 1.57 1.60  0 4.775000 -5.841000 -1.686332 4.775000 -5.841000 -1.686332 0.000000 0.000000 0.000000 0.000000 0.000000 976053557.767368 x 700.430084
VERTEX2 1 4.774191 -5.845619 -1.407951
ROBOTLASER1 0 -1.570796 3.141593 0.017453 50.000000 0.100000 0 180 5.72 5.69 5.62 5.64 5.72 81.83 81.83 12.90 12.88 81.83 81.83 4.82 81.83 81.83 7.80 81.83 4.09 4.02 4.23 4.22 4.22 81.83 81.83 81.83 81.83 81.83 81.83 81.83 81.83 81.83 81.83 81.83 3.25 3.24 81.83 81.83 3.05 3.00 2.97 2.96 2.94 81.83 81.83 2.82 2.81 2.77 2.73 2.71 2.68 2.67 2.63 2.63 2.68 2.73 2.77 2.80 2.83 2.86 2.93 2.95 81.83 2.80 2.79 2.73 2.68 2.69 3.03 2.95 2.91 2.86 2.83 2.79 2.77 2.73 2.57 2.54 2.53 2.53 2.55 2.58 2.58 2.61 2.62 2.64 2.68 2.81 3.49 5.66 5.63 5.60 5.56 5.54 5.52 3.58 3.56 4.85 4.84 4.90 5.41 5.33 4.97 5.37 5.36 4.50 4.30 4.13 4.03 4.04 4.06 4.10 4.14 4.18 5.44 5.40 5.45 5.47 5.49 5.50 5.52 5.29 4.91 4.80 4.79 4.97 4.84 4.86 4.89 4.93 4.96 5.42 5.49 5.82 5.86 5.88 5.10 5.11 4.74 4.73 5.21 5.08 4.58 4.55 1.98 1.95 1.94 1.91 1.89 1.87 1.84 1.82 1.79 1.78 1.64 1.61 1.59 1.56 1.54 1.52 1.48 1.44 1.45 1.49 1.54 1.57 1.63 1.66 1.70 1.77 1.82 1.88 1.94 2.02 2.10 2.18 2.26 2.38 2.49 2.61 2.75 2.89  0 4.774191 -5.845619 -1.407951 4.774191 -5.845619 -1.407951 0.000000 0.000000 0.000000 0.000000 0.000000 976053558.437199 x 701.099915
VERTEX2 2 4.774619 -5.852191 -1.145855
ROBOTLASER1 0 -1.570796 3.141593 0.017453 50.000000 0.100000 0 180 4.05 4.05 81.83 81.83 4.12 4.10 81.83 81.83 81.83 81.83 81.83 81.83 81.83 81.83 81.83 81.83 3.29 81.83 81.83 81.83 81.83 3.06 3.06 2.98 2.98 81.83 81.83 81.83 2.81 2.78 2.77 2.74 2.73 2.68 2.66 2.66 2.73 2.71 2.75 2.78 2.82 2.85 2.90 2.95 2.99 2.86 2.82 2.77 2.71 2.72 3.00 2.98 2.93 2.89 2.86 2.82 2.78 2.75 2.61 2.56 2.54 2.54 2.54 2.58 2.65 2.57 2.59 2.61 2.62 2.76 3.41 3.58 5.64 5.62 5.58 5.55 5.52 5.50 3.53 3.54 4.88 4.86 5.08 5.39 5.37 5.36 5.35 5.33 4.40 4.20 4.01 4.01 4.04 4.08 4.10 4.15 5.41 5.44 5.42 5.46 5.47 5.49 5.50 5.45 4.97 4.81 4.80 4.81 4.83 4.82 4.85 4.88 4.91 5.01 5.41 5.75 5.82 5.85 5.10 5.10 5.16 5.00 5.08 5.05 5.05 4.54 4.55 1.95 1.92 1.89 1.88 1.85 1.83 1.81 1.78 1.76 1.71 1.61 1.57 1.55 1.52 1.50 1.47 1.41 1.45 1.46 1.48 1.52 1.57 1.61 1.65 1.70 1.75 1.80 1.88 1.93 2.00 2.09 2.18 2.27 2.37 2.48 2.61 2.74 2.88 3.05 3.24 3.46 3.71 4.01 4.32 4.72 5.18 5.75 7.19 7.54 8.79 10.67 13.07 13.05  0 4.774619 -5.852191 -1.145855 4.774619 -5.852191 -1.145855 0.000000 0.000000 0.000000 0.000000 0.000000 976053559.341910 x 702.004626
VERTEX2 3 4.924117 -5.996597 -1.002062
ROBOTLASER1 0 -1.570796 3.141593 0.017453 50.000000 0.100000 0 180 81.83 81.83 81.83 81.83 81.83 3.22 81.83 81.83 81.83 3.06 3.00 2.96 2.95 81.83 81.83 81.83 81.83 2.74 2.68 2.69 2.63 2.64 2.58 2.55 2.60 2.62 2.66 2.69 2.73 2.76 2.81 2.85 2.89 81.83 2.70 2.68 2.63 2.56 2.79 2.91 2.85 2.80 2.76 2.71 2.68 2.64 2.62 2.54 2.56 2.63 2.70 2.79 2.80 2.78 2.76 2.74 2.42 2.46 2.58 2.68 3.27 3.41 5.51 5.47 5.44 5.40 5.37 5.34 5.31 3.35 4.72 4.68 4.66 4.96 5.21 4.79 5.17 5.17 5.15 4.29 4.10 3.91 3.82 3.83 3.87 3.90 3.94 3.98 5.24 5.24 5.20 5.27 5.28 5.29 5.31 5.32 4.83 4.67 4.59 4.66 4.76 4.63 4.66 4.69 4.72 4.76 5.22 5.52 5.61 5.64 5.70 4.94 4.91 5.67 4.53 5.75 4.99 4.88 4.37 4.37 4.96 5.00 1.77 1.76 1.73 1.71 1.69 1.68 1.66 1.64 1.62 1.61 1.59 1.52 1.46 1.43 1.40 1.39 1.37 1.36 1.34 1.29 1.30 1.35 1.37 1.42 1.47 1.52 1.57 1.63 1.70 1.78 1.86 1.94 2.04 2.15 2.28 2.41 2.59 2.75 2.95 3.19 3.47 3.81 4.19 4.66 5.28 6.27 7.29 8.94 13.06 13.02 13.02 13.01 13.01 13.02 13.03 13.03 8.79 8.57  0 4.924117 -5.996597 -1.002062 4.924117 -5.996597 -1.002062 0.000000 0.000000 0.000000 0.000000 0.000000 976053560.417394 x 703.080110
VERTEX2 4 5.003629 -6.124213 -0.989537
ROBOTLASER1 0 -1.570796 3.141593 0.017453 50.000000 0.100000 0 180 81.83 81.83 3.21 81.83 81.83 81.83 2.99 2.94 2.89 81.83 81.83 81.83 2.74 2.68 2.65 81.83 2.62 81.83 2.52 2.48 2.55 2.57 2.61 2.64 2.65 2.69 2.70 2.74 2.77 2.81 2.66 2.61 2.57 2.51 2.50 2.77 2.82 2.74 2.70 2.65 2.62 2.57 2.54 2.50 2.47 2.48 2.53 2.60 2.67 2.69 2.67 2.64 2.63 2.30 2.34 2.44 2.50 3.06 3.19 3.31 5.38 5.35 5.32 5.29 5.24 5.24 5.20 3.22 4.60 4.57 4.52 4.64 5.08 5.07 4.68 5.04 5.03 5.00 4.06 3.87 3.71 3.69 3.72 3.75 3.77 3.81 3.97 5.10 5.03 5.10 5.13 5.14 5.15 5.17 5.19 4.77 4.56 4.45 4.44 4.66 4.49 4.51 4.54 4.58 4.61 5.37 5.21 5.45 5.49 5.53 5.56 4.78 4.78 5.54 4.40 5.64 4.75 4.76 4.24 4.28 4.86 4.90 4.95 1.64 1.66 1.64 1.61 1.60 1.59 1.57 1.55 1.55 1.53 1.52 1.51 1.49 1.38 1.35 1.33 1.33 1.30 1.29 1.28 1.26 1.24 1.21 1.21 1.26 1.31 1.36 1.42 1.49 1.56 1.63 1.72 1.82 1.93 2.05 2.20 2.35 2.56 2.78 3.04 3.37 3.78 4.26 4.94 5.78 7.24 9.44 13.01 12.99 13.00 13.00 12.99 13.01 13.01 13.04 8.70 8.59  0 5.003629 -6.124213 -0.989537 5.003629 -6.124213 -0.989537 0.000000 0.000000 0.000000 0.000000 0.000000 976053560.987302 x 703.650018
VERTEX2 5 5.110758 -6.287246 -0.960357
ROBOTLASER1 0 -1.570796 3.141593 0.017453 50.000000 0.100000 0 180 3.02 2.97 2.90 2.89 81.83 81.83 2.74 2.71 2.65 81.83 81.83 81.83 81.83 2.46 2.49 2.51 2.52 2.54 2.57 2.59 2.61 2.64 2.66 2.68 2.72 2.58 2.52 2.46 2.39 2.41 2.66 2.70 2.63 2.58 2.53 2.50 2.46 2.42 2.38 2.34 2.34 2.40 2.45 2.50 2.56 2.54 2.52 2.50 2.48 2.18 2.21 2.29 2.37 2.85 2.99 3.07 4.78 5.17 5.22 5.18 5.15 5.11 5.08 3.01 3.02 5.00 4.40 4.38 4.36 4.55 4.89 4.88 4.45 4.84 4.83 4.81 3.88 3.70 3.54 3.49 3.52 3.55 3.57 3.60 3.63 4.90 4.91 4.88 4.93 4.95 4.96 4.98 4.99 4.92 4.48 4.36 4.28 4.29 4.47 4.30 4.32 4.35 4.38 4.41 5.15 5.21 5.27 5.31 5.35 5.36 4.62 4.60 5.34 4.22 5.39 4.68 4.58 4.07 4.10 4.73 4.69 4.74 4.80 4.31 4.01 3.94 1.49 1.51 1.47 1.47 1.46 1.45 1.44 1.43 1.41 1.40 1.39 1.37 1.37 1.36 1.35 1.26 1.23 1.22 1.20 1.19 1.19 1.18 1.17 1.16 1.14 1.13 1.12 1.17 1.23 1.31 1.38 1.47 1.58 1.72 1.88 2.06 2.32 2.60 2.96 3.55 4.15 5.16 7.06 12.98 12.98 12.98 12.99 12.98 12.99 13.01 13.01 13.05 8.66 8.56  0 5.110758 -6.287246 -0.960357 5.110758 -6.287246 -0.960357 0.000000 0.000000 0.000000 0.000000 0.000000 976053561.606449 x 704.269165
VERTEX2 6 5.201656 -6.417536 -0.947832
ROBOTLASER1 0 -1.570796 3.141593 0.017453 50.000000 0.100000 0 180 2.88 81.83 2.73 2.68 2.63 2.58 2.55 2.53 81.83 2.40 2.45 2.47 2.48 2.50 2.52 2.53 2.56 2.59 2.60 2.64 2.65 2.68 2.47 2.43 2.36 2.35 2.56 2.61 2.63 2.57 2.53 2.48 2.42 2.39 2.33 2.29 2.26 2.25 2.31 2.36 2.41 2.46 2.43 2.42 2.39 2.33 2.05 2.11 2.18 2.23 2.48 2.77 2.87 2.97 4.70 4.93 5.13 5.08 5.05 5.02 2.95 2.85 2.86 2.92 4.82 4.29 4.23 4.23 4.46 4.77 4.74 4.31 4.71 4.70 4.68 3.74 3.57 3.41 3.32 3.37 3.40 3.43 3.45 3.48 4.76 4.77 4.50 4.78 4.80 4.81 4.82 4.84 4.85 4.74 4.34 4.18 4.14 4.16 4.28 4.17 4.19 4.22 4.25 4.29 5.02 5.08 5.13 5.17 5.22 5.21 4.49 4.46 4.68 4.04 4.02 5.43 4.42 4.45 3.91 3.93 4.56 4.60 4.65 4.71 3.96 3.88 3.82 3.39 3.34 1.38 1.39 1.38 1.36 1.35 1.34 1.34 1.32 1.32 1.30 1.30 1.29 1.29 1.29 1.27 1.26 1.25 1.20 1.16 1.14 1.14 1.12 1.11 1.10 1.10 1.09 1.09 1.07 1.05 1.05 1.09 1.20 1.32 1.45 1.63 1.90 2.30 2.76 3.61 4.94 8.52 12.95 12.95 12.96 12.97 12.98 13.00 13.00 13.02 8.79 8.55  0 5.201656 -6.417536 -0.947832 5.201656 -6.417536 -0.947832 0.000000 0.000000 0.000000 0.000000 0.000000 976053561.829932 x 704.492648
VERTEX2 7 5.305805 -6.565260 -0.950178
ROBOTLASER1 0 -1.570796 3.141593 0.017453 50.000000 0.100000 0 180 2.65 2.57 2.52 81.83 2.47 2.41 2.43 2.44 2.45 2.47 2.48 2.49 2.51 2.53 2.55 2.57 2.59 2.63 2.41 2.35 2.28 2.25 2.48 2.51 2.53 2.48 2.43 2.37 2.31 2.26 2.24 2.18 2.15 2.15 2.20 2.23 2.26 2.31 2.34 2.31 2.28 2.25 1.93 1.96 2.02 2.06 2.12 2.55 2.59 2.66 2.77 2.84 4.52 4.50 4.84 4.97 4.92 4.88 4.85 2.70 2.71 2.73 4.72 4.25 4.10 4.07 4.05 4.28 4.60 4.57 4.13 4.54 4.53 4.51 3.60 3.42 3.26 3.18 3.19 3.22 3.24 3.26 3.29 3.32 4.59 4.59 4.12 4.61 4.61 4.62 4.64 4.65 4.67 4.56 4.14 4.02 3.94 3.97 4.15 3.96 3.99 4.03 4.05 4.08 4.12 4.89 4.93 4.99 5.02 5.06 5.07 4.32 4.30 5.06 3.99 3.92 5.11 4.29 4.29 3.79 3.78 4.40 4.44 4.49 4.56 4.61 3.77 3.71 3.45 3.25 3.21 3.16 3.11 3.15 1.24 1.26 1.24 1.24 1.23 1.22 1.21 1.21 1.20 1.20 1.19 1.18 1.17 1.17 1.15 1.14 1.14 1.16 1.17 1.17 1.16 1.06 1.06 1.05 1.04 1.04 1.03 1.02 1.01 1.01 0.99 1.01 1.01 1.00 1.00 1.42 4.50 12.92 12.91 12.92 12.94 12.97 12.99 13.01 13.03 13.07  0 5.305805 -6.565260 -0.950178 5.305805 -6.565260 -0.950178 0.000000 0.000000 0.000000 0.000000 0.000000 976053562.430267 x 705.092983
VERTEX2 8 5.408532 -6.712863 -0.954307
ROBOTLASER1 0 -1.570796 3.141593 0.017453 50.000000 0.100000 0 180 81.83 2.39 2.40 2.41 2.42 2.43 2.45 2.46 2.46 2.48 2.51 2.52 2.54 2.56 2.40 2.34 2.24 2.19 2.40 2.42 2.44 2.47 2.39 2.32 2.26 2.21 2.16 2.11 2.06 2.05 2.08 2.11 2.14 2.19 2.23 2.23 2.21 2.17 1.81 1.82 1.87 1.91 1.96 2.00 2.32 2.40 2.48 2.58 2.64 2.70 2.99 4.34 4.36 4.70 4.83 4.79 4.74 2.60 2.56 2.57 2.64 4.58 4.59 3.95 3.93 3.91 4.02 4.29 4.44 3.99 4.39 4.37 4.36 3.73 3.36 3.18 3.03 3.01 3.04 3.06 3.08 3.09 3.12 3.15 4.42 4.43 4.04 4.44 4.44 4.46 4.47 4.49 4.50 4.50 4.39 3.90 3.82 3.80 3.86 3.95 3.82 3.84 3.86 3.89 3.93 3.97 4.73 4.77 4.83 4.86 4.89 4.91 4.18 4.16 4.25 4.89 3.75 4.97 4.15 4.14 5.39 3.63 3.64 4.25 4.33 4.39 4.44 3.90 3.64 3.58 3.51 3.13 3.10 3.06 3.02 3.00 3.05 3.14 3.19 3.24 1.14 1.16 1.15 1.13 1.13 1.12 1.10 1.10 1.09 1.09 1.10 1.10 1.10 1.10 1.09 1.10 1.11 1.11 1.11 1.10 1.09 1.11 1.10 1.10 0.99 1.00 1.00 0.99 0.99 1.00 1.00 1.01 1.00 0.99 0.99 0.99 0.99 0.99 1.01 13.04  0 5.408532 -6.712863 -0.954307 5.408532 -6.712863 -0.954307 0.000000 0.000000 0.000000 0.000000 0.000000 976053563.572580 x 706.235296
VERTEX2 9 5.505044 -6.850612 -0.952291
ROBOTLASER1 0 -1.570796 3.141593 0.017453 50.000000 0.100000 0 180 2.39 2.41 2.42 2.43 2.46 2.47 2.47 2.48 2.50 2.52 2.43 2.31 2.21 2.15 2.34 2.36 2.39 2.41 2.36 2.28 2.21 2.14 2.08 2.03 1.99 1.98 2.00 2.02 2.05 2.08 2.12 2.15 2.13 2.10 1.72 1.73 1.77 1.81 1.84 1.88 1.92 2.33 2.31 2.36 2.40 2.50 2.54 2.60 2.88 4.21 4.31 4.44 4.62 4.69 4.65 4.62 2.42 2.44 2.48 4.46 4.43 4.03 3.80 3.78 3.77 3.88 4.13 4.28 3.88 4.24 4.22 4.21 4.15 3.25 3.06 2.92 2.81 2.86 2.88 2.89 2.93 2.95 2.97 3.00 4.25 4.26 3.78 4.28 4.29 4.30 4.31 4.33 4.34 4.35 4.23 3.75 3.67 3.62 3.62 3.84 3.67 3.67 3.70 3.71 3.75 3.80 4.22 4.58 4.64 4.67 4.73 4.76 4.77 4.02 4.01 4.71 4.81 3.64 4.93 4.01 4.00 5.23 3.57 3.53 4.15 4.17 4.24 4.30 4.36 3.54 3.48 3.43 3.35 3.02 2.98 2.95 2.90 2.88 2.93 3.02 3.08 3.12 3.23 3.34 3.44 3.57 2.38 1.04 1.03 1.02 1.03 1.04 1.05 1.04 1.03 1.04 1.04 1.04 1.04 1.04 1.04 1.04 1.04 1.04 1.03 1.02 1.03 1.04 1.05 1.06 1.07 1.08 1.07 0.96 0.98 0.98 0.97 0.98 0.96 0.96  0 5.505044 -6.850612 -0.952291 5.505044 -6.850612 -0.952291 0.000000 0.000000 0.000000 0.000000 0.000000 976053563.942052 x 706.604768
VERTEX2 10 5.608492 -6.998793 -0.956420
ROBOTLASER1 0 -1.570796 3.141593 0.017453 50.000000 0.100000 0 180 2.43 2.42 2.45 2.46 2.48 2.49 2.27 2.20 2.13 2.30 2.33 2.34 2.34 2.36 2.27 2.19 2.11 2.05 1.98 1.93 1.90 1.91 1.93 1.96 1.98 2.01 2.03 2.06 2.01 1.61 1.63 1.66 1.69 1.73 1.75 1.78 1.83 2.25 2.20 2.22 2.26 2.30 2.37 2.40 2.46 2.70 3.92 4.03 4.09 4.21 4.39 4.53 4.53 2.27 2.28 2.31 2.35 4.34 4.30 4.26 3.66 3.64 3.62 3.59 3.74 3.96 4.12 3.67 4.07 4.06 4.04 4.02 3.09 2.91 2.76 2.65 2.69 2.71 2.73 2.74 2.77 2.79 2.81 4.09 4.09 4.09 3.99 4.10 4.11 4.12 4.13 4.15 4.16 4.18 4.05 3.61 3.53 3.44 3.45 3.71 3.59 3.49 3.51 3.54 3.57 3.59 3.62 4.40 4.39 4.49 4.53 4.57 4.61 4.60 3.87 3.85 4.31 4.65 3.48 3.50 3.91 3.85 3.90 5.00 3.36 3.39 4.01 4.08 4.13 4.21 4.30 3.41 3.35 3.32 3.26 2.93 2.89 2.85 2.81 2.75 2.80 2.87 2.99 2.97 3.08 3.18 3.29 3.43 3.58 2.33 2.25 2.21 2.22 2.26 3.50 1.39 0.98 0.97 0.98 0.96 0.97 0.98 0.99 0.97 0.96 0.96 0.97 0.97 0.98 0.99 1.00 1.00 1.01 1.02 1.02 1.03 1.04 1.05 1.05 1.06  0 5.608492 -6.998793 -0.956420 5.608492 -6.998793 -0.956420 0.000000 0.000000 0.000000 0.000000 0.000000 976053564.503903 x 707.166619
VERTEX2 11 5.656075 -7.140312 -0.941314
ROBOTLASER1 0 -1.570796 3.141593 0.017453 50.000000 0.100000 0 180 2.45 2.45 2.30 2.06 2.10 2.29 2.30 2.32 2.32 2.34 2.21 2.12 2.03 1.96 1.89 1.86 1.86 1.88 1.90 1.91 1.92 1.95 1.98 1.56 1.54 1.56 1.58 1.61 1.63 1.66 1.68 1.71 1.95 2.12 2.12 2.10 2.11 2.17 2.23 2.25 2.30 2.35 2.56 2.62 3.79 3.88 3.98 3.96 4.21 4.33 4.43 2.16 2.20 2.16 4.25 4.22 4.20 4.15 4.11 3.51 3.48 3.47 3.47 3.65 3.91 3.97 3.52 3.91 3.90 3.88 3.52 2.92 2.74 2.58 2.49 2.53 2.55 2.56 2.58 2.59 2.62 2.65 2.66 3.93 3.93 3.93 3.46 3.95 3.96 3.96 3.98 3.99 3.99 4.02 3.89 3.47 3.38 3.32 3.29 3.37 3.46 3.29 3.35 3.36 3.39 3.43 3.45 3.50 4.26 4.30 4.36 4.40 4.44 4.47 4.47 3.72 3.70 4.45 4.43 3.35 3.35 3.77 3.72 3.73 4.84 3.24 3.26 3.87 3.95 4.00 4.07 4.14 3.52 3.27 3.24 3.20 3.14 2.81 2.79 2.76 2.73 2.69 2.66 2.72 2.82 2.88 2.95 3.06 3.19 3.34 3.49 2.20 2.22 2.23 2.10 2.13 2.16 2.33 2.21 2.15 1.76 1.36 1.34 1.19 1.00 0.91 0.92 0.92 0.93 0.94 0.94 0.95 0.95 0.96 0.96 0.96 0.98 0.98 0.98 0.99  0 5.656075 -7.140312 -0.941314 5.656075 -7.140312 -0.941314 0.000000 0.000000 0.000000 0.000000 0.000000 976053565.285510 x 707.948226
VERTEX2 12 5.807482 -7.229278 -0.948823
ROBOTLASER1 0 -1.570796 3.141593 0.017453 50.000000 0.100000 0 180 2.29 2.29 2.30 2.32 2.32 2.15 2.03 1.92 1.84 1.82 1.83 1.84 1.85 1.87 1.88 1.90 1.47 1.47 1.49 1.51 1.53 1.55 1.57 1.58 1.60 1.64 1.98 2.01 2.03 2.02 2.00 2.02 2.06 2.10 2.14 2.18 2.21 2.26 2.44 2.50 3.58 3.66 3.75 3.80 3.87 4.01 2.03 2.01 2.01 2.02 4.19 4.15 4.10 4.06 4.04 4.00 3.37 3.35 3.32 3.30 3.37 3.53 3.82 3.82 3.36 3.76 3.74 3.73 3.22 2.73 2.54 2.39 2.32 2.36 2.37 2.39 2.40 2.41 2.42 2.45 2.48 3.74 3.75 3.75 3.68 3.53 3.77 3.78 3.79 3.80 3.81 3.82 3.84 3.72 3.38 3.23 3.17 3.11 3.13 3.37 3.24 3.15 3.16 3.21 3.23 3.25 3.28 3.32 4.11 4.15 4.21 4.25 4.29 4.30 4.30 3.57 3.55 3.59 4.28 4.35 3.19 4.45 3.58 3.57 4.73 4.00 3.10 3.13 3.71 3.81 3.88 3.96 4.06 4.12 3.15 3.10 3.08 3.04 3.01 2.68 2.66 2.63 2.61 2.58 2.56 2.60 2.70 2.77 2.85 2.99 3.14 3.30 3.46 3.43 3.46 2.14 2.14 2.11 81.83 2.06 2.10 3.34 2.15 2.10 2.31 2.05 1.39 1.32 1.31 1.27 1.16 1.10 1.04 0.99 0.94 0.88 0.91 0.91 0.93 0.94  0 5.807482 -7.229278 -0.948823 5.807482 -7.229278 -0.948823 0.000000 0.000000 0.000000 0.000000 0.000000 976053565.559410 x 708.222126
VERTEX2 13 5.909773 -7.373356 -0.927571
ROBOTLASER1 0 -1.570796 3.141593 0.017453 50.000000 0.100000 0 180 2.10 1.91 1.79 1.79 1.81 1.82 1.83 1.84 1.86 1.45 1.46 1.46 1.47 1.49 1.50 1.52 1.52 1.54 1.56 1.58 1.90 1.92 1.95 1.94 1.94 1.91 1.94 1.97 1.99 2.05 2.07 2.10 2.13 2.22 2.34 2.41 3.40 3.47 3.54 3.62 3.70 3.78 1.88 1.88 1.89 1.90 4.13 4.09 4.05 4.00 3.95 3.92 3.89 3.86 3.22 3.19 3.17 3.13 3.28 3.42 3.66 3.66 3.38 3.61 3.59 3.57 2.97 2.55 2.36 2.18 2.19 2.20 2.21 2.22 2.24 2.25 2.27 2.29 2.29 3.58 3.58 3.58 3.58 3.19 3.58 3.60 3.60 3.61 3.62 3.64 3.65 3.66 3.55 3.54 3.11 3.03 3.01 2.95 2.99 3.06 3.05 2.97 3.01 3.05 3.06 3.08 3.12 3.15 3.95 3.99 4.05 4.09 4.13 4.15 4.15 3.57 3.39 3.39 4.08 4.16 4.22 3.05 3.64 3.43 3.43 4.54 3.71 2.96 2.98 2.99 3.69 3.75 3.84 4.04 4.01 3.06 3.01 2.99 2.95 2.91 2.89 2.58 2.56 2.54 2.51 2.49 2.46 2.50 2.55 2.71 2.72 2.90 3.09 3.28 3.38 3.37 3.35 3.34 2.07 2.09 2.06 81.83 2.00 2.02 2.38 2.12 2.07 2.06 2.04 2.00 3.28 3.28 1.38 1.31 1.29 1.26 1.24 1.19 1.14 1.11  0 5.909773 -7.373356 -0.927571 5.909773 -7.373356 -0.927571 0.000000 0.000000 0.000000 0.000000 0.000000 976053566.141876 x 708.804592
VERTEX2 14 6.013531 -7.512458 -0.921990
ROBOTLASER1 0 -1.570796 3.141593 0.017453 50.000000 0.100000 0 180 1.81 1.43 1.43 1.44 1.45 1.46 1.47 1.48 1.48 1.49 1.50 1.51 1.53 1.83 1.85 1.87 1.89 1.90 1.90 1.85 1.87 1.88 1.90 1.93 1.96 1.99 1.99 2.03 2.07 2.21 2.27 2.31 3.25 3.30 3.37 3.44 3.49 1.77 1.77 1.78 1.80 1.81 3.99 4.04 3.98 3.94 3.90 3.86 3.78 3.78 3.74 3.09 3.06 3.04 2.98 3.05 3.18 3.30 3.51 3.51 3.10 3.45 3.43 3.42 2.62 2.36 2.14 2.01 2.03 2.03 2.04 2.05 2.07 2.08 2.10 2.12 2.13 2.12 3.40 3.41 3.40 3.40 2.96 3.41 3.42 3.43 3.44 3.45 3.46 3.47 3.48 3.49 3.37 3.06 2.90 2.84 2.81 2.77 2.81 2.94 2.88 2.81 2.84 2.87 2.89 2.91 2.95 2.98 3.77 3.83 3.87 3.90 3.95 3.98 3.98 3.98 3.26 3.24 3.26 3.98 4.04 4.11 2.90 3.38 3.29 3.29 4.36 3.57 3.51 2.83 2.82 3.55 3.62 3.69 3.82 3.87 3.84 2.91 2.89 2.87 2.85 2.80 2.78 2.50 2.46 2.45 2.43 2.41 2.39 2.36 2.41 2.51 2.60 2.76 3.00 3.20 3.31 3.30 3.29 3.28 3.27 3.29 2.02 2.04 2.02 81.83 81.83 1.97 2.01 2.08 2.00 2.01 2.04 1.97 1.99 3.27 3.28 3.28 1.42 1.36  0 6.013531 -7.512458 -0.921990 6.013531 -7.512458 -0.921990 0.000000 0.000000 0.000000 0.000000 0.000000 976053566.718879 x 709.381595
VERTEX2 15 6.116828 -7.649657 -0.913828
ROBOTLASER1 0 -1.570796 3.141593 0.017453 50.000000 0.100000 0 180 1.46 1.46 1.47 1.48 1.49 1.50 1.50 1.80 1.81 1.83 1.84 1.85 1.86 1.85 1.81 1.81 1.84 1.84 1.87 1.89 1.91 1.91 1.94 1.98 2.11 2.16 2.20 2.22 3.10 3.15 3.20 3.26 1.68 1.67 1.66 1.70 1.67 3.64 3.73 3.81 3.89 3.92 3.87 3.83 3.78 3.73 3.67 3.65 3.62 2.95 2.93 2.90 2.87 2.94 3.04 3.16 3.38 3.37 3.02 3.32 3.30 3.28 2.43 2.38 1.98 1.87 1.88 1.88 1.89 1.90 1.91 1.92 1.92 1.94 1.95 1.97 2.15 3.25 3.25 3.25 3.25 3.24 2.80 3.26 3.27 3.28 3.28 3.30 3.31 3.32 3.32 3.34 3.21 2.87 2.73 2.69 2.65 2.62 2.66 2.85 2.76 2.62 2.67 2.69 2.72 2.74 2.78 2.80 2.84 3.63 3.68 3.72 3.77 3.82 3.83 3.83 3.83 3.13 3.10 3.10 3.88 3.93 4.02 2.75 2.77 3.16 3.17 3.41 3.62 3.40 3.28 2.70 2.72 3.47 3.55 3.62 3.77 3.75 3.70 2.83 2.80 2.78 2.76 2.72 2.70 2.68 2.39 2.38 2.37 2.35 2.33 2.32 2.30 2.33 2.43 2.51 2.83 3.13 3.26 3.24 3.23 3.23 3.22 3.22 3.22 3.22 1.96 2.00 1.99 81.83 81.83 1.93 1.98 2.05 2.01 1.98 2.00 1.98 1.97 3.26  0 6.116828 -7.649657 -0.913828 6.116828 -7.649657 -0.913828 0.000000 0.000000 0.000000 0.000000 0.000000 976053567.337487 x 710.000203
VERTEX2 16 6.223795 -7.788542 -0.906465
ROBOTLASER1 0 -1.570796 3.141593 0.017453 50.000000 0.100000 0 180 1.76 1.77 1.78 1.79 1.80 1.81 1.83 1.83 1.76 1.76 1.77 1.79 1.80 1.83 1.85 1.87 1.87 1.89 1.91 2.01 2.07 2.11 2.13 2.54 2.99 3.02 3.07 1.59 1.59 1.70 1.59 1.59 3.37 3.39 3.50 3.57 3.64 3.73 3.81 3.81 3.74 3.70 3.65 3.60 3.56 3.53 2.94 2.81 2.76 2.74 2.72 2.83 2.92 3.02 3.23 3.22 2.76 3.17 3.15 3.13 3.13 2.23 1.70 1.71 1.71 1.72 1.73 1.74 1.75 1.76 1.77 1.77 1.77 1.79 1.80 3.01 3.07 3.07 3.07 3.08 3.08 2.74 3.09 3.10 3.10 3.11 3.11 3.12 3.13 3.15 3.16 3.13 3.03 2.67 2.57 2.53 2.48 2.44 2.45 2.51 2.63 2.53 2.46 2.49 2.53 2.55 2.58 2.61 2.64 2.67 3.49 3.55 3.56 3.62 3.66 3.68 3.68 3.68 3.11 2.94 2.95 3.09 3.75 3.80 3.85 2.61 2.63 3.02 3.03 4.06 3.31 3.27 3.21 2.57 2.61 3.34 3.44 3.51 3.65 3.63 3.58 2.94 2.71 2.68 2.67 2.65 2.62 2.60 2.59 2.31 2.29 2.28 2.28 2.26 2.25 2.23 2.24 2.27 2.45 2.70 3.16 3.19 3.18 3.18 3.18 3.18 3.17 3.17 3.18 3.18 81.83 1.93 1.99 1.98 1.93 81.83 1.92 1.98 2.04 1.98  0 6.223795 -7.788542 -0.906465 6.223795 -7.788542 -0.906465 0.000000 0.000000 0.000000 0.000000 0.000000 976053567.857625 x 710.520341
VERTEX2 17 6.330281 -7.923839 -0.903465
ROBOTLASER1 0 -1.570796 3.141593 0.017453 50.000000 0.100000 0 180 1.79 1.80 1.81 1.72 1.74 1.76 1.77 1.78 1.80 1.82 1.82 1.84 1.85 1.87 1.89 1.98 2.03 2.07 2.08 2.76 2.87 2.92 1.52 1.50 1.53 1.49 1.51 3.17 3.21 3.27 3.30 3.38 3.32 3.49 3.56 3.63 3.71 3.69 3.63 3.57 3.53 3.49 3.43 3.41 2.69 2.67 2.63 2.58 2.64 2.71 2.81 2.89 3.10 3.09 2.63 3.03 3.02 3.00 1.97 1.76 1.54 1.53 1.56 1.58 1.58 1.59 1.59 1.60 1.61 1.62 1.63 1.63 1.64 1.81 2.88 2.91 2.91 2.92 2.92 2.92 2.46 2.92 2.93 2.94 2.95 2.96 2.96 2.96 2.98 2.99 2.99 2.98 2.88 2.57 2.42 2.38 2.33 2.29 2.29 2.33 2.48 2.45 2.36 2.33 2.34 2.37 2.40 2.42 2.45 2.48 2.52 3.34 3.40 3.43 3.48 3.52 3.53 3.54 3.54 3.53 2.82 2.80 2.82 3.71 3.77 3.89 4.20 2.49 2.49 2.88 2.92 3.91 3.19 3.14 3.09 2.46 2.45 2.50 3.34 3.43 3.54 3.50 3.48 3.45 2.63 2.61 2.57 2.57 2.57 2.54 2.52 2.51 2.40 2.22 2.21 2.21 2.20 2.19 2.18 2.16 2.20 2.31 2.40 3.14 3.15 3.15 3.15 3.15 3.14 3.15 3.15 3.15 3.16 3.17 2.06 1.90 1.95 1.97 1.95 81.83  0 6.330281 -7.923839 -0.903465 6.330281 -7.923839 -0.903465 0.000000 0.000000 0.000000 0.000000 0.000000 976053568.458181 x 711.120897
VERTEX2 18 6.438830 -8.061533 -0.893521
ROBOTLASER1 0 -1.570796 3.141593 0.017453 50.000000 0.100000 0 180 1.74 1.77 1.78 1.79 1.79 1.79 1.80 1.82 1.84 1.93 1.96 1.99 2.01 2.03 2.20 1.47 1.46 1.50 1.46 1.42 1.45 2.97 3.02 3.07 3.10 3.14 3.18 3.23 3.22 3.32 3.39 3.45 3.51 3.58 3.61 3.56 3.49 3.45 3.40 3.32 3.29 2.58 2.54 2.51 2.46 2.51 2.58 2.65 2.73 2.80 2.95 2.47 2.91 2.88 2.87 1.50 1.40 1.41 1.41 1.39 1.39 1.40 1.43 1.43 1.44 1.45 1.45 1.46 1.46 1.47 1.48 2.66 2.68 2.70 2.75 2.75 2.75 2.75 2.75 2.28 2.75 2.76 2.77 2.77 2.78 2.79 2.79 2.80 2.80 2.81 2.82 2.70 2.72 2.38 2.25 2.21 2.17 2.16 2.12 2.13 2.38 2.27 2.24 2.13 2.16 2.19 2.21 2.23 2.26 2.29 2.31 2.35 3.18 3.23 3.28 3.31 3.37 3.39 3.40 3.40 3.40 2.71 2.67 2.66 2.70 3.47 3.57 3.88 4.00 2.37 2.34 2.78 2.80 3.60 3.05 3.01 2.97 3.00 2.34 2.40 2.36 3.37 3.43 3.41 3.37 3.34 3.32 2.52 2.51 2.50 2.50 2.48 2.45 2.44 2.43 2.40 2.19 2.16 2.15 2.14 2.13 2.13 2.12 2.11 2.14 2.37 2.45 3.12 3.12 3.12 3.12 3.12 3.13 3.13 3.14 3.15 3.16 3.16 2.14 2.10  0 6.438830 -8.061533 -0.893521 6.438830 -8.061533 -0.893521 0.000000 0.000000 0.000000 0.000000 0.000000 976053569.800980 x 712.463696
VERTEX2 19 6.551223 -8.200208 -0.851252
ROBOTLASER1 0 -1.570796 3.141593 0.017453 50.000000 0.100000 0 180 1.81 1.94 1.91 1.95 1.97 1.98 1.53 1.47 1.53 1.42 1.40 1.42 2.80 2.83 2.87 2.92 2.93 2.96 3.00 3.03 3.08 3.12 3.16 3.15 3.25 3.31 3.36 3.41 3.47 3.54 3.47 3.41 3.36 3.31 3.24 2.60 2.46 2.43 2.39 2.38 2.42 2.47 2.53 2.60 2.67 2.84 2.37 2.83 2.77 1.26 1.27 1.27 1.27 1.27 1.29 1.28 1.25 1.25 1.26 1.28 1.30 1.30 1.31 1.32 1.32 1.32 1.34 2.52 2.51 2.51 2.59 2.59 2.58 2.58 2.58 2.58 2.40 2.58 2.59 2.60 2.60 2.61 2.61 2.62 2.63 2.64 2.65 2.65 2.66 2.53 2.55 2.14 2.08 2.05 2.00 1.97 1.94 1.94 2.04 2.02 2.10 2.04 1.99 2.01 2.03 2.05 2.07 2.10 2.13 2.15 2.18 3.02 3.10 3.13 3.17 3.20 3.23 3.24 3.25 3.26 2.67 2.53 2.52 2.53 3.45 3.48 3.47 3.52 3.82 2.95 2.22 2.56 2.69 3.10 2.93 2.89 2.86 2.87 2.95 2.24 2.29 2.66 3.32 3.29 3.27 3.25 3.22 3.20 2.43 2.43 2.41 2.41 2.40 2.39 2.37 2.36 2.34 2.32 2.12 2.07 2.06 2.06 2.06 2.06 2.06 2.06 2.10 2.34 3.08 3.08 3.09 3.09 3.10 3.11 3.12 3.13 3.14 3.16 3.17 3.17  0 6.551223 -8.200208 -0.851252 6.551223 -8.200208 -0.851252 0.000000 0.000000 0.000000 0.000000 0.000000 976053569.708694 x 712.371410
VERTEX2 20 6.664002 -8.328058 -0.825636
ROBOTLASER1 0 -1.570796 3.141593 0.017453 50.000000 0.100000 0 180 1.50 1.35 1.34 1.47 2.70 2.73 2.74 2.76 2.78 2.80 2.83 2.86 2.89 2.92 2.95 2.99 3.02 3.05 3.09 3.13 3.18 3.24 3.28 3.33 3.39 3.43 3.37 3.30 3.25 3.20 2.62 2.37 2.32 2.29 2.28 2.31 2.36 2.41 2.47 2.53 2.59 2.73 1.11 1.11 1.15 1.14 1.14 1.13 1.14 1.14 1.13 1.14 1.14 1.15 1.14 1.11 1.12 1.12 1.14 1.16 1.16 1.49 2.38 2.37 2.37 2.36 2.35 2.44 2.43 2.43 2.43 2.43 2.42 1.94 2.43 2.43 2.43 2.44 2.44 2.44 2.45 2.45 2.46 2.46 2.47 2.48 2.49 2.35 2.38 2.11 1.94 1.89 1.86 1.82 1.78 1.77 1.77 1.84 1.93 1.96 1.90 1.84 1.83 1.86 1.88 1.90 1.91 1.93 1.97 2.01 2.03 2.39 2.91 2.97 3.01 3.07 3.08 3.08 3.10 3.11 2.51 2.35 2.34 2.35 3.32 3.36 3.32 3.37 3.67 2.77 2.52 2.09 2.11 3.41 2.84 2.80 2.78 2.73 2.77 2.85 2.19 2.21 2.23 3.20 3.17 3.15 3.14 3.14 3.11 3.10 2.34 2.33 2.32 2.31 2.32 2.30 2.26 2.28 2.29 2.29 2.23 2.06 2.00 2.01 2.00 2.01 2.00 2.00 2.01 2.07 2.40 3.04 3.06 3.07 3.08 3.10 3.11 3.12 3.14 3.16  0 6.664002 -8.328058 -0.825636 6.664002 -8.328058 -0.825636 0.000000 0.000000 0.000000 0.000000 0.000000 976053570.379467 x 713.042183
VERTEX2 21 6.780008 -8.457081 -0.801004
ROBOTLASER1 0 -1.570796 3.141593 0.017453 50.000000 0.100000 0 180 1.54 1.58 2.77 2.77 2.78 2.80 2.82 2.84 2.88 2.89 2.92 2.95 2.98 3.00 3.04 3.01 3.13 3.17 3.20 3.26 3.29 3.36 3.33 3.27 3.20 3.14 2.30 2.26 2.22 2.14 2.19 2.25 2.28 2.32 1.05 1.03 1.01 1.00 0.99 0.99 0.99 1.00 1.02 1.03 1.03 1.01 1.02 1.02 1.01 1.01 1.01 1.02 1.01 0.98 0.99 1.00 2.25 2.25 2.23 2.23 2.22 2.22 2.23 2.19 2.29 2.29 2.28 2.28 2.27 2.27 2.20 1.78 2.27 2.27 2.27 2.28 2.28 2.28 2.28 2.29 2.29 2.29 2.30 2.31 2.32 2.33 2.19 2.22 2.01 1.78 1.73 1.71 1.66 1.65 1.61 1.61 1.63 1.89 1.65 1.78 1.74 1.68 1.64 1.69 1.71 1.73 1.76 1.78 1.80 1.84 1.85 1.88 2.76 2.81 2.86 2.92 2.93 2.93 2.95 2.27 2.08 2.05 2.05 2.07 3.08 3.16 3.15 3.19 2.42 2.35 2.35 2.37 3.40 1.99 2.00 2.95 2.71 2.68 2.66 2.61 2.70 2.80 2.15 2.21 3.12 3.09 3.08 3.06 3.05 3.03 3.02 3.02 2.31 2.24 2.22 2.22 2.21 2.23 2.24 2.24 2.23 2.23 2.23 2.24 2.03 1.95 1.95 1.96 1.96 1.97 1.98 1.98 2.02 2.32 3.04 3.05 3.07 3.08 3.10 3.11  0 6.780008 -8.457081 -0.801004 6.780008 -8.457081 -0.801004 0.000000 0.000000 0.000000 0.000000 0.000000 976053570.839892 x 713.502608
VERTEX2 22 6.903533 -8.584505 -0.795423
ROBOTLASER1 0 -1.570796 3.141593 0.017453 50.000000 0.100000 0 180 2.81 2.81 2.83 2.84 2.87 2.89 2.91 2.93 2.95 2.98 2.95 3.04 3.08 3.12 3.15 3.19 3.24 3.29 3.27 3.20 3.14 2.23 2.17 2.12 1.19 0.94 0.94 0.94 0.93 0.92 0.92 0.91 0.90 0.89 0.89 0.88 0.87 0.86 0.86 0.87 0.88 0.89 0.89 0.87 0.87 0.88 0.88 0.88 0.92 2.14 2.13 2.12 2.11 2.10 2.09 2.08 2.07 2.06 2.06 2.06 2.04 2.13 2.12 2.11 2.11 2.11 2.10 1.92 1.61 2.09 2.09 2.10 2.10 2.10 2.10 2.10 2.11 2.11 2.12 2.12 2.13 2.14 2.14 2.15 2.13 2.03 2.04 1.66 1.60 1.55 1.52 1.50 1.48 1.45 1.43 1.43 1.46 1.71 1.46 1.61 1.56 1.53 1.46 1.51 1.54 1.56 1.57 1.59 1.62 1.63 1.66 1.69 1.72 2.63 2.67 2.73 2.77 2.78 2.79 2.80 2.05 1.82 1.82 1.82 1.82 2.06 3.13 3.09 2.24 2.17 2.17 2.19 2.22 3.28 3.26 1.88 1.82 2.06 2.59 2.57 2.54 2.49 2.15 2.17 2.57 3.02 3.01 2.99 2.98 2.97 2.96 2.95 2.95 2.94 2.94 2.17 2.18 2.19 2.19 2.18 2.18 2.18 2.18 2.19 2.19 2.16 2.16 2.05 1.97 1.92 1.94 1.94 1.95 1.96 1.98 1.98 2.03 3.04 3.05 3.08  0 6.903533 -8.584505 -0.795423 6.903533 -8.584505 -0.795423 0.000000 0.000000 0.000000 0.000000 0.000000 976053571.453513 x 714.116229
VERTEX2 23 6.976523 -8.707178 -0.736500
ROBOTLASER1 0 -1.570796 3.141593 0.017453 50.000000 0.100000 0 180 2.89 2.91 2.93 2.94 2.97 2.93 3.03 3.05 3.08 3.11 3.13 3.17 3.22 0.90 0.89 0.88 0.86 0.85 0.84 0.83 0.83 0.82 0.82 0.82 0.80 0.80 0.79 0.78 0.78 0.77 0.76 0.76 0.76 0.75 0.74 0.73 0.74 0.75 0.77 0.94 1.52 2.06 2.05 2.03 2.01 2.00 1.98 1.98 1.95 1.96 1.95 1.93 1.93 1.92 1.91 1.91 1.90 1.98 1.97 1.96 1.96 1.95 1.95 1.48 1.94 1.94 1.94 1.94 1.94 1.94 1.94 1.94 1.94 1.94 1.95 1.95 1.95 1.96 1.97 1.97 1.98 1.99 1.84 1.87 1.87 1.47 1.43 1.38 1.36 1.33 1.32 1.29 1.26 1.27 1.26 1.34 1.54 1.33 1.45 1.42 1.38 1.35 1.31 1.35 1.37 1.39 1.41 1.44 1.46 1.47 1.51 1.54 1.55 1.70 2.54 2.58 2.62 2.63 2.65 2.66 2.67 2.69 1.90 1.84 1.81 1.81 1.83 3.05 2.94 2.98 3.25 3.22 2.36 2.14 2.13 2.14 2.18 2.01 1.70 1.78 2.45 2.43 2.42 2.46 2.60 2.73 2.93 2.01 1.94 1.99 2.89 2.89 2.88 2.88 2.88 2.87 2.87 2.15 2.12 2.12 2.12 2.14 2.15 2.13 2.11 2.11 2.12 2.14 2.15 2.15 1.99 1.94 1.90 1.93 1.94 1.96 1.96 1.98 2.00 2.02  0 6.976523 -8.707178 -0.736500 6.976523 -8.707178 -0.736500 0.000000 0.000000 0.000000 0.000000 0.000000 976053572.575060 x 715.237776
VERTEX2 24 7.067823 -8.745103 -0.750768
ROBOTLASER1 0 -1.570796 3.141593 0.017453 50.000000 0.100000 0 180 2.94 2.94 2.95 2.93 3.01 3.04 3.06 3.10 0.88 0.86 0.85 0.84 0.83 0.82 0.82 0.81 0.81 0.80 0.78 0.78 0.76 0.76 0.75 0.75 0.75 0.74 0.73 0.73 0.72 0.72 0.70 0.70 0.68 0.79 0.88 1.20 1.37 1.52 2.03 2.01 1.99 1.97 1.96 1.94 1.93 1.92 1.91 1.89 1.88 1.87 1.86 1.85 1.84 1.83 1.85 1.92 1.92 1.90 1.90 1.89 1.89 1.44 1.45 1.88 1.87 1.87 1.87 1.87 1.87 1.87 1.87 1.87 1.88 1.88 1.88 1.88 1.89 1.89 1.90 1.90 1.91 1.81 1.79 1.80 1.42 1.36 1.32 1.30 1.29 1.25 1.23 1.21 1.19 1.20 1.19 1.26 1.45 1.23 1.37 1.34 1.32 1.28 1.22 1.26 1.28 1.30 1.33 1.35 1.36 1.39 1.42 1.45 1.46 1.49 2.45 2.51 2.56 2.56 2.57 2.58 2.59 2.61 2.63 2.69 1.87 1.82 1.81 1.81 1.84 2.87 3.20 3.17 3.15 3.12 3.10 2.19 2.11 2.10 2.11 1.68 1.68 2.41 2.35 2.35 2.44 2.57 2.71 2.89 2.90 2.87 1.81 1.85 1.85 2.85 2.84 2.84 2.84 2.84 2.73 2.10 2.10 2.10 2.11 2.09 2.08 2.09 2.09 2.10 2.13 2.14 2.15 2.09 1.95 1.90 1.90 1.94 1.94 1.97 1.98 2.00  0 7.067823 -8.745103 -0.750768 7.067823 -8.745103 -0.750768 0.000000 0.000000 0.000000 0.000000 0.000000 976053573.233082 x 715.895798
VERTEX2 25 7.068247 -8.746420 -0.569364
ROBOTLASER1 0 -1.570796 3.141593 0.017453 50.000000 0.100000 0 180 0.86 0.85 0.83 0.84 0.83 0.83 0.82 0.81 0.79 0.79 0.78 0.77 0.77 0.77 0.76 0.76 0.75 0.75 0.74 0.73 0.73 0.71 0.74 0.83 1.18 1.33 1.47 1.66 2.03 2.01 1.98 1.96 1.95 1.94 1.94 1.91 1.91 1.89 1.89 1.88 1.86 1.85 1.84 1.84 1.93 1.92 1.92 1.91 1.91 1.90 1.43 1.43 1.89 1.89 1.88 1.88 1.88 1.88 1.87 1.88 1.88 1.88 1.88 1.89 1.89 1.89 1.90 1.90 1.91 1.92 1.80 1.77 1.80 1.41 1.35 1.32 1.30 1.27 1.24 1.23 1.20 1.19 1.19 1.20 1.26 1.23 1.19 1.36 1.33 1.29 1.22 1.22 1.26 1.27 1.29 1.32 1.34 1.36 1.38 1.41 1.43 1.47 1.48 1.86 2.49 2.55 2.56 2.57 2.58 2.59 2.60 2.61 1.78 1.75 1.75 1.75 1.75 2.78 2.86 2.92 3.16 3.14 2.21 2.07 2.06 2.06 2.07 3.00 1.68 1.65 1.92 2.36 2.34 2.35 2.49 2.63 2.79 2.88 1.86 1.86 1.93 2.82 2.83 2.83 2.83 2.82 2.82 2.82 2.09 2.08 2.08 2.09 2.08 2.07 2.07 2.07 2.08 2.10 2.10 2.11 2.14 1.95 1.90 1.90 1.91 1.93 1.93 1.95 1.96 1.97 1.99 2.43 3.06 3.11 3.13 3.16 3.20 3.22 3.26 3.29  0 7.068247 -8.746420 -0.569364 7.068247 -8.746420 -0.569364 0.000000 0.000000 0.000000 0.000000 0.000000 976053573.831324 x 716.494040
VERTEX2 26 7.066176 -8.697260 -0.335600
ROBOTLASER1 0 -1.570796 3.141593 0.017453 50.000000 0.100000 0 180 0.78 0.77 0.77 0.76 0.76 0.76 0.75 0.75 0.76 0.85 1.13 1.25 1.39 1.56 2.06 2.05 2.02 2.00 1.98 1.96 1.95 1.94 1.93 1.92 1.90 1.89 1.88 1.86 1.86 1.85 1.85 1.93 1.92 1.92 1.92 1.92 1.86 1.45 1.88 1.90 1.90 1.89 1.89 1.89 1.89 1.89 1.89 1.89 1.89 1.89 1.90 1.90 1.91 1.91 1.91 1.92 1.91 1.79 1.79 1.40 1.36 1.32 1.31 1.28 1.24 1.23 1.20 1.19 1.18 1.18 1.23 1.23 1.20 1.36 1.33 1.30 1.21 1.22 1.26 1.27 1.29 1.31 1.33 1.35 1.37 1.39 1.42 1.44 1.47 1.50 2.44 2.50 2.54 2.55 2.56 2.57 2.59 2.60 1.71 1.71 1.70 1.70 1.70 2.17 2.84 2.86 2.92 3.14 2.03 2.01 2.02 2.02 2.05 2.93 1.70 1.63 1.65 2.38 2.35 2.35 2.38 2.48 2.63 2.07 1.96 1.95 2.30 2.83 2.82 2.82 2.81 2.81 2.81 2.81 2.81 2.07 2.06 2.06 2.07 2.06 2.05 2.05 2.04 2.05 2.07 2.10 2.09 2.12 1.93 1.90 1.87 1.89 1.91 1.91 1.93 1.94 1.95 1.96 2.31 3.06 3.09 3.14 3.14 3.17 3.19 3.24 3.27 3.29 3.33 2.28 2.25 2.28 2.28 2.26 2.26 2.10 2.08 2.11 2.08 81.83  0 7.066176 -8.697260 -0.335600 7.066176 -8.697260 -0.335600 0.000000 0.000000 0.000000 0.000000 0.000000 976053574.252349 x 716.915065
VERTEX2 27 7.065372 -8.697875 -0.062197
ROBOTLASER1 0 -1.570796 3.141593 0.017453 50.000000 0.100000 0 180 2.08 2.06 2.04 2.00 1.98 1.98 1.96 1.95 1.94 1.93 1.91 1.90 1.90 1.89 1.90 1.94 1.95 1.94 1.93 1.92 1.91 1.41 1.47 1.91 1.91 1.91 1.91 1.90 1.90 1.91 1.90 1.91 1.91 1.91 1.92 1.92 1.92 1.92 1.92 1.93 1.94 1.81 1.80 1.43 1.37 1.33 1.31 1.29 1.25 1.25 1.21 1.21 1.20 1.20 1.27 1.27 1.27 1.38 1.33 1.31 1.21 1.23 1.27 1.30 1.31 1.32 1.35 1.36 1.39 1.41 1.43 1.46 1.48 1.64 2.45 2.49 2.53 2.54 2.55 2.56 2.58 2.30 1.70 1.69 1.68 1.68 1.69 2.91 3.22 2.91 2.91 2.07 2.01 2.01 2.00 2.02 2.25 3.01 1.68 1.63 1.66 2.37 2.35 2.33 2.34 2.47 2.56 1.92 1.91 1.96 2.83 2.82 2.82 2.82 2.81 2.82 2.80 2.80 2.80 2.05 2.05 2.05 2.05 2.06 2.05 2.05 2.04 2.04 2.05 2.08 2.10 2.10 1.94 1.89 1.84 1.85 1.89 1.90 1.91 1.91 1.93 1.93 1.96 3.03 3.05 3.10 3.11 3.14 3.16 3.19 3.23 3.27 3.30 3.34 2.21 2.21 2.25 2.24 2.24 2.22 2.08 2.09 2.08 2.10 2.26 2.26 2.26 2.27 2.27 3.32 3.29 3.24 3.19 3.15 3.11 3.06 3.04 3.01 2.98 2.94  0 7.065372 -8.697875 -0.062197 7.065372 -8.697875 -0.062197 0.000000 0.000000 0.000000 0.000000 0.000000 976053574.831233 x 717.493949
VERTEX2 28 7.064252 -8.648491 0.213787
ROBOTLASER1 0 -1.570796 3.141593 0.017453 50.000000 0.100000 0 180 1.98 1.97 1.97 1.96 1.91 1.86 1.90 1.94 1.93 1.93 1.93 1.93 1.93 1.93 1.93 1.93 1.93 1.93 1.93 1.94 1.93 1.94 1.94 1.95 1.84 1.82 1.82 1.41 1.36 1.32 1.32 1.29 1.27 1.23 1.22 1.22 1.24 1.29 1.29 1.27 1.41 1.37 1.33 1.23 1.25 1.30 1.31 1.33 1.35 1.36 1.37 1.41 1.43 1.45 1.46 1.49 1.65 2.45 2.49 2.55 2.55 2.56 2.57 2.58 2.59 1.92 1.76 1.74 1.74 1.75 1.81 2.98 3.23 3.08 3.17 3.15 2.11 2.06 2.05 2.04 2.05 1.69 1.65 1.66 2.36 2.34 2.31 2.29 2.43 2.54 2.66 2.86 1.88 1.89 2.11 2.83 2.82 2.81 2.81 2.81 2.80 2.81 2.04 2.04 2.05 2.04 2.04 2.05 2.05 2.04 2.03 2.03 2.04 2.06 2.06 1.97 1.87 1.81 1.82 1.87 1.88 1.89 1.90 1.91 1.92 1.94 3.01 3.02 3.05 3.10 3.10 3.13 3.15 3.19 3.22 3.26 3.30 3.33 2.18 2.18 2.21 2.21 2.24 2.08 2.08 2.08 2.08 2.06 2.24 2.24 2.25 2.27 3.35 3.30 3.25 3.20 3.16 3.12 3.08 3.04 3.01 2.99 2.94 2.91 2.01 1.97 1.96 1.95 1.93 1.92 1.94 1.96 1.93 1.92 1.92 1.94 1.93 1.93 1.94 1.94  0 7.064252 -8.648491 0.213787 7.064252 -8.648491 0.213787 0.000000 0.000000 0.000000 0.000000 0.000000 976053575.431465 x 718.094181
VERTEX2 29 7.063448 -8.649106 0.470536
ROBOTLASER1 0 -1.570796 3.141593 0.017453 50.000000 0.100000 0 180 1.95 1.95 1.96 1.96 1.96 1.97 1.97 1.97 1.98 1.94 1.86 1.85 1.46 1.39 1.36 1.33 1.32 1.30 1.25 1.25 1.26 1.27 1.38 1.35 1.35 1.42 1.39 1.33 1.30 1.31 1.32 1.33 1.36 1.37 1.39 1.41 1.43 1.46 1.47 1.50 1.52 2.43 2.47 2.52 2.56 2.57 2.58 2.58 2.60 2.61 2.63 1.80 1.78 1.78 1.78 1.87 3.03 2.96 2.95 3.17 3.15 3.12 2.11 2.08 2.07 2.08 1.66 1.63 2.11 2.37 2.36 2.35 2.38 2.47 2.58 2.72 2.84 1.83 1.84 1.87 2.82 2.82 2.82 2.81 2.81 2.80 2.80 2.04 2.03 2.04 2.04 2.04 2.05 2.05 2.05 2.03 2.02 2.04 2.06 2.06 1.89 1.85 1.84 1.85 1.87 1.88 1.88 1.90 1.91 1.92 1.94 2.99 3.02 3.04 3.07 3.10 3.13 3.15 3.17 3.21 3.25 3.29 3.32 2.19 2.18 2.18 2.21 3.56 2.07 2.07 2.07 2.08 2.24 2.21 2.23 2.24 2.23 3.32 3.28 3.23 3.18 3.14 3.10 3.06 3.02 2.98 2.98 2.92 2.89 1.98 1.95 1.94 1.94 1.92 1.90 1.94 1.94 1.91 1.90 1.89 1.91 1.91 1.90 1.90 1.91 1.91 1.91 1.92 2.50 2.34 2.46 4.76 4.75 4.74 4.73 4.73 4.72 4.73 4.73 4.73  0 7.063448 -8.649106 0.470536 7.063448 -8.649106 0.470536 0.000000 0.000000 0.000000 0.000000 0.000000 976053576.375960 x 719.038676
VERTEX2 30 7.013070 -8.598872 0.754447
ROBOTLASER1 0 -1.570796 3.141593 0.017453 50.000000 0.100000 0 180 1.32 1.31 1.29 1.30 1.31 1.41 1.52 1.43 1.45 1.40 1.36 1.35 1.35 1.35 1.36 1.38 1.40 1.41 1.44 1.46 1.48 1.50 1.53 1.55 2.46 2.50 2.54 2.58 2.59 2.60 2.60 2.62 1.82 1.75 1.74 1.74 1.74 1.79 2.79 2.80 2.84 2.96 2.06 2.05 2.05 2.05 2.06 3.05 1.70 1.69 1.71 2.40 2.39 2.35 2.35 2.42 2.51 2.30 1.96 1.96 2.02 2.84 2.83 2.82 2.82 2.82 2.81 2.80 2.80 2.05 2.04 2.05 2.05 2.05 2.04 2.05 2.05 2.05 2.03 2.03 2.06 2.06 1.95 1.87 1.82 1.81 1.85 1.87 1.87 1.89 1.91 1.91 1.93 2.97 3.00 3.02 3.06 3.07 3.10 3.12 3.16 3.18 3.21 3.25 3.28 2.19 2.18 2.16 2.16 2.19 2.05 2.04 2.05 2.06 2.05 2.08 2.19 2.20 2.21 2.24 3.31 3.25 3.20 3.15 3.11 3.07 3.03 2.99 2.95 2.96 2.90 2.87 1.95 1.93 1.92 1.91 1.87 1.86 1.91 1.91 1.89 1.87 1.87 1.88 1.90 1.88 1.88 1.89 1.89 1.87 1.88 2.48 2.32 2.40 4.71 4.73 4.71 4.71 4.70 4.69 4.69 4.69 4.69 4.69 4.69 4.70 4.70 4.71 4.72 4.73 4.74 4.75 4.77 4.78 4.80 4.82 4.84 4.86 4.89 4.92  0 7.013070 -8.598872 0.754447 7.013070 -8.598872 0.754447 0.000000 0.000000 0.000000 0.000000 0.000000 976053577.100685 x 719.763401
VERTEX2 31 7.015723 -8.595666 1.021698
ROBOTLASER1 0 -1.570796 3.141593 0.017453 50.000000 0.100000 0 180 1.40 1.42 1.45 1.47 1.49 1.50 1.53 1.54 1.58 2.47 2.53 2.56 2.60 2.61 2.63 2.63 1.86 1.70 1.70 1.68 1.68 1.69 2.66 2.74 2.79 2.06 2.03 2.02 2.03 2.04 3.12 3.10 3.01 1.71 1.67 2.13 2.41 2.39 2.34 2.35 1.99 2.00 2.04 2.87 2.86 2.86 2.84 2.83 2.83 2.82 2.81 2.82 2.81 2.81 2.06 2.05 2.06 2.05 2.06 2.06 2.06 2.06 2.06 2.04 2.04 2.07 2.08 1.87 1.84 1.82 1.85 1.87 1.88 1.89 1.90 1.91 1.92 2.15 2.99 3.01 3.02 3.06 3.07 3.11 3.14 3.16 3.19 3.22 3.25 3.28 2.19 2.19 2.19 2.19 3.52 2.04 2.05 2.05 2.05 2.22 2.20 2.20 2.22 2.20 3.31 3.27 3.22 3.17 3.13 3.09 3.04 3.00 2.96 2.93 2.91 2.87 2.26 1.91 1.90 1.90 1.88 1.84 1.85 1.90 1.89 1.86 1.85 1.85 1.86 1.88 1.85 1.86 1.87 1.87 1.86 1.87 2.47 2.41 2.44 4.71 4.70 4.69 4.68 4.68 4.67 4.67 4.67 4.67 4.67 4.67 4.67 4.68 4.68 4.69 4.70 4.72 4.73 4.74 4.77 4.78 4.79 4.81 4.84 4.87 4.88 4.90 4.93 4.96 5.00 7.40 7.36 7.34 7.30 7.28 7.26 7.20 7.23 6.57 7.44 7.77  0 7.015723 -8.595666 1.021698 7.015723 -8.595666 1.021698 0.000000 0.000000 0.000000 0.000000 0.000000 976053577.237360 x 719.900076
VERTEX2 32 6.966481 -8.594297 1.291536
ROBOTLASER1 0 -1.570796 3.141593 0.017453 50.000000 0.100000 0 180 2.67 2.03 1.84 1.82 1.81 1.81 1.94 2.76 2.95 3.21 3.27 3.24 2.11 2.09 2.09 2.11 3.10 1.70 1.69 2.29 2.43 2.42 2.34 2.39 2.50 2.60 2.72 1.93 1.96 1.97 2.85 2.84 2.84 2.83 2.83 2.83 2.83 2.13 2.07 2.07 2.07 2.08 2.08 2.07 2.06 2.08 2.07 2.05 2.06 2.07 1.97 1.89 1.83 1.84 1.88 1.89 1.91 1.91 1.91 1.93 1.93 2.98 3.00 3.02 3.04 3.09 3.10 3.12 3.15 3.17 3.20 3.23 3.28 2.21 2.19 2.18 2.19 3.48 2.05 2.05 2.05 2.05 2.05 3.65 2.21 2.21 2.21 3.37 3.31 3.26 3.21 3.15 3.11 3.07 3.02 2.99 2.96 2.95 2.90 2.86 1.92 1.90 1.90 1.88 1.86 1.83 1.89 1.89 1.87 1.84 1.83 1.82 1.86 1.85 1.84 1.84 1.85 1.85 1.85 1.85 2.34 2.33 2.50 4.69 4.68 4.67 4.67 4.66 4.66 4.65 4.65 4.65 4.65 4.66 4.66 4.66 4.67 4.67 4.68 4.69 4.71 4.73 4.74 4.76 4.77 4.79 4.80 4.83 4.85 4.88 4.90 4.94 4.98 7.38 7.35 7.31 7.28 7.27 7.23 6.81 6.88 7.62 6.02 7.75 7.74 7.62 6.26 6.27 6.44 81.83 81.83 81.83 19.20 19.27 81.83 19.08 81.83 81.83 10.28 10.42  0 6.966481 -8.594297 1.291536 6.966481 -8.594297 1.291536 0.000000 0.000000 0.000000 0.000000 0.000000 976053577.832085 x 720.494801
VERTEX2 33 6.965862 -8.590793 1.575448
ROBOTLASER1 0 -1.570796 3.141593 0.017453 50.000000 0.100000 0 180 2.15 1.76 1.73 1.99 2.43 2.42 2.39 2.37 2.49 2.60 2.71 2.92 1.87 1.89 1.91 2.87 2.86 2.86 2.85 2.84 2.84 2.17 2.10 2.09 2.09 2.09 2.09 2.09 2.08 2.10 2.09 2.08 2.09 2.09 1.93 1.90 1.87 1.88 1.90 1.90 1.91 1.93 1.92 1.93 1.97 2.99 3.01 3.03 3.06 3.10 3.11 3.13 3.15 3.18 3.21 3.25 3.28 2.19 2.21 2.20 2.20 3.48 2.06 2.05 2.05 2.05 3.71 2.20 2.20 2.20 2.20 3.36 3.31 3.26 3.20 3.15 3.11 3.06 3.02 2.98 2.95 2.93 2.89 2.32 1.90 1.90 1.88 1.88 1.82 1.82 1.90 1.87 1.86 1.83 1.82 1.82 1.85 1.85 1.85 1.84 1.84 1.84 1.84 2.45 2.31 2.26 2.49 4.68 4.67 4.66 4.66 4.64 4.64 4.64 4.63 4.64 4.64 4.63 4.64 4.64 4.65 4.65 4.67 4.67 4.68 4.70 4.71 4.73 4.75 4.77 4.79 4.81 4.83 4.85 4.89 4.91 4.94 4.99 7.33 7.30 7.28 7.24 7.21 7.19 6.90 6.52 5.99 5.99 7.35 7.69 7.04 6.55 7.11 6.41 81.83 81.83 81.83 81.83 81.83 19.15 19.10 81.83 81.83 10.26 81.83 81.83 8.00 7.81 7.82 5.84 5.83 3.50 3.50 3.44 3.42 2.08 2.05 2.04 2.03 2.00  0 6.965862 -8.590793 1.575448 6.965862 -8.590793 1.575448 0.000000 0.000000 0.000000 0.000000 0.000000 976053578.507887 x 721.170603
VERTEX2 34 6.914671 -8.589845 1.829307
ROBOTLASER1 0 -1.570796 3.141593 0.017453 50.000000 0.100000 0 180 2.92 2.91 2.90 2.90 2.88 2.88 2.12 2.13 2.11 2.10 2.11 2.11 2.11 2.12 2.13 2.11 2.10 2.11 2.12 1.93 1.87 1.87 1.91 1.91 1.93 1.92 1.94 1.95 1.98 3.00 3.02 3.04 3.06 3.11 3.12 3.14 3.16 3.19 3.22 3.25 3.29 2.23 2.22 2.22 2.21 3.48 2.08 2.08 2.08 2.09 3.73 3.68 2.22 2.21 2.21 3.39 3.33 3.28 3.23 3.17 3.13 3.09 3.05 3.00 2.96 2.93 2.89 2.38 1.91 1.90 1.89 1.87 1.82 1.85 1.90 1.87 1.85 1.83 1.83 1.82 1.83 1.84 1.84 1.83 1.83 1.83 1.84 2.46 2.30 2.26 2.45 4.68 4.67 4.66 4.65 4.65 4.64 4.64 4.63 4.63 4.63 4.63 4.63 4.63 4.64 4.64 4.64 4.67 4.67 4.68 4.69 4.71 4.73 4.74 4.77 4.78 4.81 4.83 4.85 4.88 4.91 4.94 7.35 7.31 7.29 7.25 7.22 7.19 6.81 7.16 6.68 7.41 7.70 7.68 7.43 6.21 6.47 6.39 81.83 81.83 17.82 17.80 19.24 81.83 19.03 18.96 81.83 10.23 10.38 81.83 8.06 7.95 7.79 5.85 5.90 5.89 3.49 3.45 3.42 2.06 2.04 2.02 2.01 1.99 1.97 1.96 1.95 1.94 1.93 2.07 2.18 2.18 2.16 2.15 2.13 2.12 2.10 2.09 2.02 1.97  0 6.914671 -8.589845 1.829307 6.914671 -8.589845 1.829307 0.000000 0.000000 0.000000 0.000000 0.000000 976053579.114397 x 721.777113
VERTEX2 35 6.913867 -8.590460 2.039473
ROBOTLASER1 0 -1.570796 3.141593 0.017453 50.000000 0.100000 0 180 2.14 2.14 2.14 2.14 2.14 2.13 2.14 1.96 1.90 1.89 1.92 1.93 1.95 1.95 1.95 1.97 1.99 3.02 3.04 3.06 3.09 3.13 3.13 3.15 3.18 3.21 3.24 3.27 3.30 2.24 2.22 2.23 2.23 2.21 2.08 2.08 2.07 2.08 2.27 2.23 2.23 2.23 2.24 3.40 3.35 3.30 3.23 3.19 3.14 3.10 3.05 3.01 2.96 2.94 2.90 1.94 1.91 1.90 1.89 1.87 1.85 1.88 1.88 1.88 1.87 1.84 1.83 1.83 1.83 1.85 1.85 1.85 1.83 1.84 1.84 2.49 2.31 2.34 2.46 4.68 4.67 4.66 4.65 4.64 4.64 4.63 4.64 4.63 4.63 4.63 4.62 4.63 4.63 4.64 4.64 4.66 4.67 4.67 4.69 4.71 4.73 4.75 4.77 4.78 4.80 4.82 4.84 4.87 4.90 4.94 7.33 7.29 7.27 7.24 7.21 7.18 7.08 7.15 6.73 7.42 7.68 7.66 7.35 6.21 6.31 6.38 81.83 81.83 17.81 17.79 19.19 19.39 19.01 19.00 81.83 10.23 10.23 81.83 8.04 7.92 7.78 5.84 5.89 5.86 7.82 3.44 3.40 2.02 2.03 2.00 1.99 1.97 1.95 1.93 1.92 1.91 1.92 2.05 2.16 2.14 2.13 2.13 2.11 2.10 2.09 2.08 1.98 1.95 1.94 1.93 1.93 1.95 1.96 1.95 1.94 1.94 1.93 1.78 1.55 1.56  0 6.913867 -8.590460 2.039473 6.913867 -8.590460 2.039473 0.000000 0.000000 0.000000 0.000000 0.000000 976053579.629174 x 722.291890
VERTEX2 36 6.913064 -8.591075 2.300585
ROBOTLASER1 0 -1.570796 3.141593 0.017453 50.000000 0.100000 0 180 1.96 2.00 2.04 3.07 3.09 3.11 3.13 3.14 3.17 3.19 3.22 3.25 3.28 3.30 2.27 2.27 2.27 2.25 2.13 2.10 2.09 2.09 2.09 2.07 2.23 2.22 2.25 2.26 3.44 3.38 3.33 3.28 3.23 3.17 3.12 3.08 3.04 3.00 2.98 2.93 1.96 1.93 1.91 1.91 1.89 1.87 1.90 1.92 1.91 1.88 1.87 1.86 1.83 1.83 1.84 1.86 1.86 1.85 1.85 1.87 2.50 2.33 2.36 2.47 4.70 4.68 4.67 4.67 4.65 4.64 4.63 4.63 4.63 4.63 4.63 4.63 4.63 4.63 4.64 4.65 4.66 4.67 4.67 4.68 4.70 4.72 4.73 4.76 4.77 4.79 4.82 4.84 4.86 4.90 4.92 7.34 7.29 7.27 7.24 7.21 7.20 6.79 6.74 7.33 5.96 5.96 7.55 7.63 6.36 6.20 6.36 6.37 81.83 81.83 17.71 17.76 19.34 19.16 19.13 81.83 81.83 10.23 10.21 81.83 7.95 7.75 6.55 5.76 5.77 3.48 3.47 2.37 2.02 2.00 1.99 1.97 1.95 1.93 1.92 1.90 1.90 1.90 2.00 2.14 2.12 2.11 2.10 2.09 2.09 2.07 2.06 2.05 1.95 1.92 1.92 1.92 1.91 1.91 1.93 1.92 1.92 1.91 1.90 1.91 2.04 1.89 1.39 1.41 1.72 2.01 2.06 2.66 2.69 2.68 2.68 2.72 2.72 2.73 2.75 2.74  0 6.913064 -8.591075 2.300585 6.913064 -8.591075 2.300585 0.000000 0.000000 0.000000 0.000000 0.000000 976053580.372426 x 723.035142
VERTEX2 37 6.862516 -8.641137 2.566061
ROBOTLASER1 0 -1.570796 3.141593 0.017453 50.000000 0.100000 0 180 2.26 2.29 2.21 81.83 2.10 2.11 2.09 2.12 2.23 2.23 2.29 2.29 2.29 3.43 3.37 3.31 3.26 3.21 3.16 3.12 3.07 3.04 2.99 2.97 2.00 1.95 1.92 1.92 1.91 1.90 1.91 1.93 1.92 1.91 1.90 1.88 1.87 1.85 1.85 1.86 1.88 1.87 1.87 2.02 2.51 2.37 2.38 2.47 4.71 4.70 4.68 4.68 4.67 4.66 4.65 4.65 4.64 4.64 4.64 4.64 4.64 4.64 4.65 4.66 4.67 4.67 4.68 4.69 4.71 4.72 4.74 4.76 4.78 4.80 4.82 4.84 4.86 4.90 4.92 7.35 7.31 7.29 7.25 7.22 7.19 7.16 7.12 6.58 5.95 5.94 7.32 7.31 7.03 6.62 7.05 8.93 81.83 81.83 17.76 17.72 19.23 19.28 18.94 18.91 81.83 81.83 81.83 81.83 7.97 7.86 7.76 7.76 2.07 2.06 2.13 2.19 2.00 1.98 1.96 1.94 1.93 1.92 1.90 1.88 1.88 1.88 2.00 2.12 2.10 2.09 2.09 2.07 2.07 2.06 2.04 2.03 1.93 1.91 1.91 1.90 1.88 1.88 1.88 1.90 1.90 1.88 1.88 1.89 2.03 1.91 1.38 1.38 1.52 1.97 2.03 2.38 2.65 2.66 2.67 2.68 2.69 2.69 2.70 2.71 2.74 2.74 2.76 2.77 2.79 2.81 2.81 2.84 2.86 2.89 2.91 2.92 2.94 2.99 3.02 3.04  0 6.862516 -8.641137 2.566061 6.862516 -8.641137 2.566061 0.000000 0.000000 0.000000 0.000000 0.000000 976053580.982678 x 723.645394
VERTEX2 38 6.852961 -8.638229 2.839463
ROBOTLASER1 0 -1.570796 3.141593 0.017453 50.000000 0.100000 0 180 3.29 3.23 3.17 3.14 3.10 3.05 3.01 3.01 2.02 1.98 1.96 1.95 1.93 1.91 1.95 1.94 1.94 1.93 1.92 1.91 1.89 1.88 1.88 1.87 1.89 1.88 1.88 2.46 2.45 2.36 2.44 4.73 4.72 4.70 4.70 4.69 4.68 4.67 4.67 4.66 4.66 4.66 4.66 4.66 4.66 4.66 4.66 4.67 4.67 4.68 4.69 4.70 4.72 4.73 4.75 4.77 4.78 4.81 4.82 4.85 4.87 4.90 4.93 7.36 7.32 7.29 7.26 7.22 7.19 7.17 7.12 6.44 5.95 5.93 7.62 7.30 7.03 6.55 7.04 8.88 81.83 81.83 17.74 17.76 19.19 19.36 19.02 18.95 81.83 10.17 10.29 81.83 7.97 7.86 7.75 7.72 5.74 3.44 2.34 2.24 1.97 1.95 1.94 1.93 1.91 1.89 1.88 1.86 1.86 1.92 2.02 2.10 2.09 2.07 2.07 2.05 2.04 2.03 2.01 1.93 1.90 1.88 1.87 1.87 1.87 1.84 1.85 1.87 1.87 1.87 1.87 1.86 2.00 1.69 1.37 1.37 1.72 1.96 2.01 2.33 2.63 2.64 2.63 2.65 2.65 2.67 2.68 2.68 2.69 2.71 2.73 2.74 2.76 2.78 2.78 2.80 2.83 2.85 2.87 2.90 2.92 2.93 2.97 3.02 3.06 3.09 3.13 3.16 3.21 3.21 3.14 2.77 2.14 2.09 0.88 0.87 0.86 0.85 0.84 0.84  0 6.852961 -8.638229 2.839463 6.852961 -8.638229 2.839463 0.000000 0.000000 0.000000 0.000000 0.000000 976053581.633119 x 724.295835
VERTEX2 39 6.843241 -8.687372 3.096027
ROBOTLASER1 0 -1.570796 3.141593 0.017453 50.000000 0.100000 0 180 1.96 1.95 1.95 1.93 1.92 1.91 1.90 1.90 1.90 1.92 1.91 1.91 2.55 2.36 2.37 2.53 4.76 4.75 4.73 4.71 4.70 4.69 4.68 4.67 4.67 4.67 4.67 4.67 4.67 4.67 4.67 4.67 4.67 4.68 4.69 4.70 4.71 4.73 4.75 4.76 4.78 4.79 4.81 4.83 4.86 4.89 4.92 4.94 7.36 7.31 7.29 7.25 7.22 7.20 7.16 6.80 6.50 5.96 5.96 7.30 7.39 6.59 6.21 7.04 6.35 81.83 81.83 17.78 17.75 19.45 19.34 18.98 18.95 81.83 10.22 81.83 81.83 7.95 7.85 7.72 2.00 2.04 2.10 2.13 1.97 1.94 1.93 1.92 1.90 1.88 1.87 1.86 1.85 1.85 1.96 2.09 2.08 2.07 2.05 2.04 2.03 2.02 2.01 1.99 1.89 1.87 1.86 1.85 1.83 1.83 1.82 1.85 1.85 1.85 1.84 1.84 2.15 1.96 1.38 1.37 1.38 1.94 1.94 1.99 2.59 2.61 2.61 2.61 2.63 2.64 2.65 2.66 2.66 2.67 2.70 2.70 2.72 2.74 2.75 2.77 2.78 2.80 2.82 2.84 2.87 2.90 2.89 2.88 2.99 3.02 3.06 3.10 3.14 3.17 3.19 3.12 3.04 2.12 2.08 0.85 0.84 0.84 0.83 0.83 0.82 0.81 0.81 0.80 0.79 0.79 0.79 0.77 0.78 0.77 0.75 0.76 0.77 0.77 0.77 0.79  0 6.843241 -8.687372 3.096027 6.843241 -8.687372 3.096027 0.000000 0.000000 0.000000 0.000000 0.000000 976053581.867788 x 724.530504
VERTEX2 40 6.832423 -8.688827 -2.914554
ROBOTLASER1 0 -1.570796 3.141593 0.017453 50.000000 0.100000 0 180 2.57 4.78 4.77 4.75 4.74 4.73 4.72 4.71 4.70 4.70 4.69 4.69 4.69 4.69 4.69 4.70 4.70 4.71 4.71 4.72 4.72 4.74 4.76 4.77 4.78 4.80 4.82 4.84 4.86 4.89 4.91 4.93 4.95 7.35 7.31 7.28 7.26 7.22 7.20 7.14 7.13 7.44 7.71 7.69 7.68 7.41 6.29 6.32 7.06 81.83 81.83 81.83 17.73 17.72 19.24 19.23 19.23 81.83 81.83 10.21 10.20 8.04 7.91 7.74 5.80 5.77 2.16 2.17 1.97 1.95 1.94 1.91 1.90 1.88 1.86 1.86 1.84 1.84 1.96 2.07 2.07 2.06 2.04 2.03 2.02 2.01 2.00 1.98 1.88 1.87 1.85 1.84 1.84 1.82 1.81 1.82 1.84 1.84 1.83 1.83 1.87 1.96 1.36 1.36 1.36 1.92 1.91 1.96 2.24 2.60 2.60 2.58 2.58 2.61 2.63 2.65 2.65 2.66 2.67 2.68 2.69 2.71 2.72 2.74 2.76 2.78 2.80 2.81 2.84 2.86 2.87 2.91 2.95 2.97 3.01 3.04 3.08 3.13 3.16 3.14 3.06 2.14 2.09 0.97 0.82 0.82 0.81 0.80 0.79 0.78 0.78 0.77 0.77 0.77 0.77 0.76 0.75 0.74 0.73 0.72 0.72 0.74 0.76 0.75 0.76 0.74 0.75 0.75 0.75 0.75 0.75 0.80 2.00 2.00 1.98 1.98 1.97 1.97 1.95 1.95  0 6.832423 -8.688827 -2.914554 6.832423 -8.688827 -2.914554 0.000000 0.000000 0.000000 0.000000 0.000000 976053582.332932 x 724.995648
VERTEX2 41 6.831112 -8.739600 -2.689331
ROBOTLASER1 0 -1.570796 3.141593 0.017453 50.000000 0.100000 0 180 4.71 4.72 4.71 4.71 4.72 4.73 4.74 4.75 4.76 4.78 4.79 4.80 4.81 4.83 4.85 4.88 4.91 4.92 4.95 4.98 7.38 7.34 7.30 7.28 7.25 7.21 7.16 6.76 7.17 6.02 7.72 7.34 7.48 6.23 6.22 6.37 6.39 81.83 81.83 17.78 17.80 19.43 19.46 19.04 19.01 81.83 10.30 81.83 81.83 7.96 7.76 5.84 5.81 2.40 2.20 1.97 1.95 1.94 1.93 1.91 1.89 1.86 1.85 1.85 1.90 1.99 2.09 2.07 2.07 2.05 2.04 2.02 2.01 1.99 1.98 1.88 1.87 1.86 1.83 1.83 1.82 1.81 1.81 1.83 1.84 1.82 1.83 2.21 1.37 1.32 1.31 1.80 1.91 1.91 1.96 2.59 2.60 2.60 2.60 2.58 2.62 2.63 2.64 2.63 2.64 2.66 2.67 2.70 2.71 2.72 2.73 2.75 2.77 2.79 2.81 2.82 2.83 2.84 2.90 2.93 2.95 2.99 3.02 3.06 3.10 3.14 3.15 3.06 2.20 2.05 0.80 0.79 0.78 0.77 0.77 0.77 0.76 0.76 0.75 0.74 0.74 0.73 0.74 0.74 0.72 0.71 0.70 0.70 0.72 0.73 0.73 0.73 0.73 0.73 0.72 0.73 0.72 0.73 0.76 1.99 1.97 1.97 1.96 1.94 1.94 1.93 1.92 1.91 1.91 1.91 1.90 1.92 1.97 1.96 1.96 1.96 1.96 1.95 1.95 1.49  0 6.831112 -8.739600 -2.689331 6.831112 -8.739600 -2.689331 0.000000 0.000000 0.000000 0.000000 0.000000 976053582.967397 x 725.630113
VERTEX2 42 6.880306 -8.739723 -2.419862
ROBOTLASER1 0 -1.570796 3.141593 0.017453 50.000000 0.100000 0 180 4.93 4.96 4.99 5.01 7.42 7.37 7.34 7.31 7.29 7.25 7.22 7.03 6.53 6.02 7.75 7.41 7.70 7.04 6.59 7.09 81.83 81.83 81.83 81.83 17.78 19.23 81.83 81.83 81.83 81.83 10.21 10.22 81.83 7.99 7.87 5.86 5.77 3.44 2.26 1.99 1.96 1.94 1.93 1.91 1.89 1.88 1.86 1.87 1.98 2.09 2.10 2.08 2.06 2.05 2.05 2.04 2.01 2.00 1.91 1.89 1.88 1.87 1.86 1.84 1.84 1.82 1.83 1.84 1.84 1.84 2.27 1.41 1.33 1.34 1.91 1.91 1.92 1.96 2.52 2.59 2.60 2.60 2.59 2.61 2.62 2.63 2.64 2.65 2.66 2.67 2.68 2.69 2.72 2.72 2.74 2.76 2.78 2.80 2.82 2.85 2.84 2.89 2.82 2.95 2.96 3.00 3.03 3.07 3.11 3.15 3.11 3.04 2.07 0.77 0.77 0.75 0.75 0.74 0.74 0.73 0.72 0.72 0.72 0.71 0.70 0.71 0.70 0.70 0.70 0.68 0.68 0.68 0.68 0.69 0.71 0.72 0.71 0.70 0.71 0.71 0.70 0.85 1.98 1.97 1.96 1.94 1.94 1.92 1.91 1.90 1.90 1.89 1.88 1.88 1.88 1.94 1.94 1.94 1.94 1.94 1.94 1.94 1.94 1.47 1.87 1.94 1.94 1.94 1.94 1.94 1.94 1.94 1.95 1.95 1.96 1.97 1.97 1.98 1.99 2.00  0 6.880306 -8.739723 -2.419862 6.880306 -8.739723 -2.419862 0.000000 0.000000 0.000000 0.000000 0.000000 976053583.492911 x 726.155627
VERTEX2 43 6.845373 -8.632605 2.508408
ROBOTLASER1 0 -1.570796 3.141593 0.017453 50.000000 0.100000 0 180 2.35 2.33 2.23 2.26 2.22 81.83 2.13 2.13 2.12 81.83 2.24 2.25 2.22 2.24 2.29 3.49 3.42 3.36 3.31 3.25 3.20 3.15 3.10 3.06 3.03 2.98 2.20 1.95 1.93 1.93 1.91 1.87 1.92 1.93 1.91 1.90 1.89 1.88 1.87 1.85 1.85 1.83 1.84 1.86 1.85 2.47 2.50 2.31 2.36 2.46 4.71 4.69 4.68 4.67 4.66 4.65 4.64 4.63 4.62 4.62 4.62 4.62 4.62 4.62 4.62 4.62 4.63 4.63 4.64 4.66 4.67 4.69 4.68 4.70 4.72 4.74 4.77 4.79 4.81 4.83 4.86 4.89 7.32 7.29 7.25 7.21 7.18 7.16 7.12 6.73 7.12 6.62 5.90 7.63 7.26 7.56 6.14 7.00 6.30 81.83 81.83 81.83 17.66 19.10 19.39 19.15 18.93 81.83 81.83 10.17 81.83 81.83 7.89 7.67 6.83 5.68 5.78 3.39 81.83 2.27 1.93 1.92 1.90 1.89 1.88 1.85 1.85 1.83 1.82 1.89 1.99 2.07 2.06 2.04 2.04 2.03 2.01 2.00 2.00 1.98 1.88 1.86 1.85 1.84 1.83 1.84 1.84 1.86 1.85 1.84 1.85 1.84 2.24 1.99 1.93 1.37 1.32 1.82 1.97 1.99 2.61 2.61 2.62 2.64 2.65 2.65 2.67 2.68 2.70 2.71 2.72 2.74 2.76 2.77 2.80 2.81 2.83 2.86 2.88 2.91  0 6.845373 -8.632605 2.508408 6.845373 -8.632605 2.508408 0.000000 0.000000 0.000000 0.000000 0.000000 976053589.349719 x 732.012435
VERTEX2 44 6.740034 -8.447356 2.062783
ROBOTLASER1 0 -1.570796 3.141593 0.017453 50.000000 0.100000 0 180 1.98 1.93 1.93 1.93 1.94 1.95 1.95 1.96 1.97 2.01 3.02 3.03 3.05 3.05 3.07 3.09 3.12 3.13 3.16 3.17 3.18 3.21 2.20 2.21 2.20 2.17 2.18 2.01 2.02 2.01 2.00 2.02 2.14 2.14 2.14 2.14 2.15 3.43 3.37 3.30 3.23 3.18 3.13 3.07 3.02 2.97 2.93 2.88 2.83 1.81 1.78 1.77 1.75 1.74 1.72 1.76 1.76 1.74 1.72 1.72 1.70 1.70 1.69 1.67 1.67 1.66 1.66 1.67 1.68 1.68 2.32 2.31 2.09 2.18 2.30 4.53 4.51 4.50 4.48 4.47 4.47 4.46 4.45 4.44 4.44 4.43 4.43 4.43 4.43 4.43 4.44 4.45 4.45 4.46 4.47 4.47 4.49 4.50 4.52 4.54 4.55 4.57 4.60 4.61 4.63 4.67 4.69 4.72 4.73 7.13 7.10 7.06 7.03 7.00 6.98 6.65 6.95 6.32 5.76 7.49 7.10 7.47 6.86 6.02 6.88 6.18 81.83 81.83 17.61 19.03 81.83 18.95 18.78 81.83 81.83 10.03 81.83 81.83 7.84 7.74 7.60 5.65 7.92 5.70 6.54 3.31 3.29 3.25 3.22 3.19 1.91 1.87 1.86 1.86 1.84 1.82 1.81 1.79 1.79 1.79 1.87 2.05 2.04 2.03 2.02 2.01 2.00 2.00 1.99 1.98 1.97 1.86 1.88 1.88 1.87 1.88 1.89 1.88 1.88 1.87  0 6.740034 -8.447356 2.062783 6.740034 -8.447356 2.062783 0.000000 0.000000 0.000000 0.000000 0.000000 976053591.218626 x 733.881342
VERTEX2 45 6.718702 -8.314794 2.069164
ROBOTLASER1 0 -1.570796 3.141593 0.017453 50.000000 0.100000 0 180 1.93 1.94 1.94 1.95 1.96 2.01 2.99 3.00 3.01 3.03 3.04 3.05 3.05 3.08 3.09 3.11 3.13 3.14 2.19 2.16 2.44 2.12 81.83 1.95 1.94 1.94 1.92 1.93 2.03 2.07 2.07 2.08 2.03 2.05 3.41 3.34 3.26 3.18 3.13 3.07 3.01 2.95 2.90 2.85 2.80 1.75 1.68 1.67 1.66 1.64 1.60 1.60 1.63 1.64 1.63 1.61 1.60 1.59 1.58 1.57 1.57 1.57 1.55 1.54 1.53 1.52 1.53 1.89 2.18 2.19 1.99 1.96 2.11 2.21 4.39 4.38 4.36 4.35 4.34 4.33 4.31 4.30 4.30 4.30 4.29 4.29 4.29 4.29 4.29 4.29 4.29 4.30 4.31 4.32 4.33 4.34 4.35 4.37 4.38 4.39 4.41 4.43 4.46 4.47 4.50 4.53 4.55 4.57 4.61 6.99 6.96 6.94 6.91 6.89 6.86 6.83 6.64 6.14 7.39 5.63 7.22 7.34 6.74 5.89 6.73 6.05 81.83 81.83 81.83 18.93 81.83 18.77 81.83 81.83 81.83 10.05 9.98 81.83 7.80 7.69 7.51 7.53 5.59 5.87 5.63 7.82 5.70 3.24 3.20 3.16 3.14 3.11 3.09 2.63 1.81 1.80 1.79 1.78 1.78 1.77 1.76 1.75 1.74 1.74 1.88 2.00 1.99 1.98 1.98 1.97 1.97 1.96 1.96 1.95 1.95 1.85 1.85 1.85 1.86 1.88  0 6.718702 -8.314794 2.069164 6.718702 -8.314794 2.069164 0.000000 0.000000 0.000000 0.000000 0.000000 976053591.969072 x 734.631788
VERTEX2 46 6.576745 -8.197252 2.093795
ROBOTLASER1 0 -1.570796 3.141593 0.017453 50.000000 0.100000 0 180 3.00 3.00 3.00 3.01 3.01 3.02 3.03 3.04 3.05 3.06 3.07 3.08 2.11 2.10 2.13 81.83 1.89 1.90 1.88 1.84 81.83 1.86 1.99 1.99 2.00 2.00 1.98 3.52 3.48 3.39 3.31 3.22 3.15 3.07 3.01 2.93 2.88 2.83 2.77 1.58 1.55 1.53 1.52 1.51 1.47 1.46 1.51 1.48 1.48 1.47 1.46 1.45 1.43 1.43 1.42 1.41 1.39 1.40 1.39 1.38 1.38 1.37 1.50 1.83 1.98 2.02 1.95 1.81 1.88 2.00 4.24 4.23 4.22 4.20 4.18 4.17 4.15 4.15 4.14 4.13 4.12 4.12 4.11 4.11 4.10 4.10 4.10 4.10 4.11 4.11 4.12 4.13 4.14 4.15 4.16 4.17 4.19 4.19 4.21 4.23 4.24 4.26 4.29 4.31 4.34 4.37 4.39 4.41 6.82 6.78 6.75 6.74 6.71 6.69 6.67 6.25 6.77 6.15 5.46 7.18 6.82 7.01 6.56 5.72 6.57 5.90 81.83 81.83 17.56 81.83 18.67 81.83 81.83 81.83 9.80 9.84 81.83 81.83 7.63 7.53 7.39 7.41 5.48 5.48 5.51 81.83 5.53 6.38 3.14 3.11 3.09 3.06 3.03 3.02 3.00 2.68 2.55 2.70 1.73 1.72 1.71 1.72 1.72 1.71 1.71 1.70 1.69 1.69 1.69 1.95 1.95 1.94 1.94 1.94 1.94 1.94 1.94 1.94 1.94 1.85  0 6.576745 -8.197252 2.093795 6.576745 -8.197252 2.093795 0.000000 0.000000 0.000000 0.000000 0.000000 976053592.485976 x 735.148692
VERTEX2 47 6.491883 -8.051405 2.094829
ROBOTLASER1 0 -1.570796 3.141593 0.017453 50.000000 0.100000 0 180 3.00 3.00 3.02 3.03 3.03 3.05 3.05 3.05 2.09 2.09 2.32 81.83 1.87 1.85 1.84 1.81 1.83 1.88 1.97 1.95 1.96 1.94 1.92 1.94 3.41 3.44 3.39 3.30 3.20 3.11 3.03 2.95 2.89 2.82 1.53 1.46 1.45 1.44 1.41 1.39 1.36 1.38 1.42 1.38 1.37 1.36 1.35 1.34 1.33 1.32 1.31 1.30 1.29 1.28 1.28 1.27 1.25 1.25 1.24 1.51 1.59 1.72 1.84 1.87 1.69 1.67 1.74 1.85 1.91 4.11 4.09 4.08 4.06 4.05 4.03 4.01 4.00 4.00 4.00 3.99 3.98 3.97 3.96 3.96 3.96 3.96 3.96 3.96 3.97 3.97 3.97 3.99 4.00 4.00 4.01 4.01 4.02 4.04 4.06 4.08 4.09 4.11 4.14 4.15 4.18 4.20 4.24 4.26 4.27 6.65 6.63 6.60 6.58 6.55 6.53 6.23 6.51 5.82 6.73 5.32 6.83 7.04 6.42 5.79 6.16 81.83 81.83 81.83 18.63 81.83 18.62 18.47 18.16 81.83 81.83 9.70 9.75 81.83 11.06 7.50 7.41 7.29 7.32 7.64 5.42 5.39 81.83 6.29 7.41 7.42 5.45 3.05 3.02 3.00 2.99 2.97 2.94 2.93 2.81 2.49 2.66 2.65 2.63 1.69 1.68 1.68 1.68 1.67 1.67 1.66 1.65 1.65 1.65 1.66 1.92 1.92 1.93 1.92 1.93 1.93  0 6.491883 -8.051405 2.094829 6.491883 -8.051405 2.094829 0.000000 0.000000 0.000000 0.000000 0.000000 976053592.989022 x 735.651738
VERTEX2 48 6.406556 -7.902248 2.094080
ROBOTLASER1 0 -1.570796 3.141593 0.017453 50.000000 0.100000 0 180 3.02 3.03 3.02 2.53 2.06 81.83 81.83 1.84 1.83 1.82 81.83 1.81 1.84 1.92 1.91 1.91 1.89 1.88 1.88 3.27 3.30 3.32 3.35 3.39 3.27 3.18 3.08 2.98 2.90 1.40 1.37 1.34 1.31 1.31 1.27 1.25 1.29 1.29 1.26 1.25 1.23 1.22 1.22 1.21 1.20 1.18 1.17 1.17 1.15 1.14 1.13 1.12 1.11 1.09 1.10 1.30 1.39 1.42 1.51 1.62 1.72 1.72 1.50 1.55 1.62 1.69 1.74 3.99 3.96 3.94 3.92 3.90 3.89 3.87 3.86 3.86 3.84 3.83 3.82 3.81 3.80 3.80 3.79 3.79 3.79 3.78 3.79 3.78 3.79 3.79 3.80 3.81 3.82 3.83 3.84 3.85 3.86 3.87 3.89 3.90 3.91 3.93 3.95 3.97 4.00 4.02 4.04 4.07 4.09 4.13 6.49 6.46 6.43 6.41 6.40 6.38 6.01 6.36 5.67 6.59 5.22 6.84 6.89 6.34 6.31 5.46 81.83 5.63 81.83 81.83 81.83 18.36 81.83 81.83 81.83 81.83 9.70 9.65 81.83 10.93 7.41 7.33 7.19 7.20 7.47 5.28 81.83 5.31 81.83 5.31 81.83 5.35 5.37 5.41 2.98 2.96 2.93 2.91 2.91 2.87 2.87 2.86 2.85 2.41 2.60 2.59 2.59 2.58 2.55 1.64 1.64 1.64 1.64 1.64 1.64 1.64 1.64 1.64 1.64 1.64  0 6.406556 -7.902248 2.094080 6.406556 -7.902248 2.094080 0.000000 0.000000 0.000000 0.000000 0.000000 976053593.536174 x 736.198890
VERTEX2 49 6.317418 -7.746770 2.055844
ROBOTLASER1 0 -1.570796 3.141593 0.017453 50.000000 0.100000 0 180 2.04 81.83 1.79 1.78 1.81 1.74 81.83 1.76 1.78 1.85 1.89 1.84 1.84 1.82 1.84 1.83 3.17 3.19 3.21 3.23 3.26 3.29 3.32 3.22 3.13 1.29 1.28 1.25 1.23 1.20 1.16 1.16 1.20 1.18 1.16 1.14 1.13 1.11 1.10 1.07 1.07 1.06 1.04 1.02 1.01 1.01 1.00 0.99 0.98 0.97 0.97 1.03 1.06 1.14 1.20 1.26 1.32 1.41 1.49 1.59 1.39 1.37 1.42 1.46 1.52 1.51 3.87 3.86 3.83 3.80 3.78 3.76 3.75 3.74 3.72 3.70 3.69 3.68 3.67 3.66 3.64 3.64 3.63 3.62 3.62 3.62 3.62 3.62 3.62 3.62 3.62 3.62 3.62 3.63 3.64 3.65 3.66 3.68 3.69 3.70 3.71 3.73 3.75 3.76 3.78 3.80 3.83 3.85 3.86 3.89 3.92 3.95 6.34 6.31 6.29 6.28 6.25 6.24 6.22 6.04 6.31 5.53 6.76 5.02 6.55 6.74 6.16 6.15 5.40 81.83 5.50 17.18 81.83 18.29 18.15 17.87 81.83 81.83 81.83 9.47 81.83 81.83 8.83 7.30 7.22 7.08 7.11 6.18 81.83 5.19 5.21 81.83 7.21 5.26 5.27 5.27 5.20 7.40 7.54 2.90 2.88 2.87 2.85 2.84 2.83 2.81 2.81 2.79 2.39 2.55 2.57 2.56 2.56 2.55 2.55 2.01 2.00 1.62 1.62 1.62  0 6.317418 -7.746770 2.055844 6.317418 -7.746770 2.055844 0.000000 0.000000 0.000000 0.000000 0.000000 976053594.980750 x 737.643466
VERTEX2 50 6.235614 -7.592340 2.047351
ROBOTLASER1 0 -1.570796 3.141593 0.017453 50.000000 0.100000 0 180 1.81 1.73 81.83 1.76 1.77 1.88 1.84 1.83 1.84 1.82 1.79 1.79 3.10 3.11 3.12 3.14 3.15 3.17 3.18 1.23 1.19 1.17 1.14 1.12 1.08 1.09 1.11 1.08 1.06 1.04 1.02 1.00 0.98 0.96 0.96 0.94 0.93 0.91 0.90 0.88 0.87 0.85 0.85 0.83 0.82 0.88 0.92 0.95 0.97 1.01 1.06 1.09 1.15 1.20 1.26 1.31 1.38 1.41 1.18 1.24 1.28 1.33 1.36 1.40 1.44 3.75 3.72 3.69 3.67 3.65 3.63 3.61 3.60 3.58 3.56 3.54 3.53 3.52 3.51 3.49 3.48 3.47 3.46 3.46 3.45 3.45 3.44 3.44 3.44 3.44 3.44 3.44 3.44 3.45 3.46 3.47 3.47 3.48 3.50 3.51 3.52 3.53 3.54 3.57 3.58 3.61 3.62 3.64 3.67 3.68 3.70 3.73 3.76 3.79 6.18 6.17 6.14 6.12 6.11 6.09 6.09 5.98 6.24 5.48 6.62 4.90 6.30 6.61 6.02 6.02 5.21 16.81 5.38 18.46 18.35 18.04 17.76 81.83 81.83 81.83 81.83 9.40 9.60 81.83 8.69 7.23 7.14 6.97 7.00 7.04 81.83 81.83 81.83 5.14 81.83 81.83 5.14 5.21 81.83 5.13 7.41 9.69 9.77 2.85 2.84 2.82 2.82 2.79 2.79 2.79 2.78 2.77 2.75 2.53 2.35 2.54 2.54 2.54 2.54 2.54  0 6.235614 -7.592340 2.047351 6.235614 -7.592340 2.047351 0.000000 0.000000 0.000000 0.000000 0.000000 976053594.808039 x 737.470755
VERTEX2 51 6.206193 -7.439659 2.031914
ROBOTLASER1 0 -1.570796 3.141593 0.017453 50.000000 0.100000 0 180 1.78 1.88 1.83 1.81 1.81 1.82 1.76 1.78 3.06 3.04 3.07 3.09 3.09 1.16 1.15 1.09 1.08 1.04 1.02 1.02 1.01 0.98 0.96 0.95 0.92 0.89 0.88 0.86 0.85 0.82 0.81 0.80 0.78 0.77 0.75 0.73 0.71 0.76 0.79 0.80 0.82 0.85 0.86 0.89 0.91 0.95 0.97 0.99 1.04 1.06 1.12 1.15 1.20 1.25 1.10 1.05 1.11 1.15 1.17 1.19 1.23 1.26 1.29 3.66 3.63 3.61 3.57 3.56 3.53 3.51 3.48 3.46 3.44 3.43 3.41 3.39 3.38 3.36 3.35 3.33 3.32 3.31 3.31 3.30 3.30 3.30 3.30 3.30 3.29 3.28 3.29 3.29 3.29 3.29 3.30 3.30 3.30 3.31 3.32 3.33 3.34 3.35 3.37 3.38 3.40 3.41 3.43 3.44 3.46 3.48 3.51 3.54 3.56 3.58 3.61 3.63 3.66 6.02 6.00 5.99 5.97 5.96 5.95 5.90 6.23 5.27 6.49 4.74 6.20 6.48 5.88 5.90 5.07 5.95 5.26 81.83 18.07 17.78 17.66 81.83 81.83 81.83 9.21 9.30 81.83 81.83 8.63 7.18 7.06 6.96 6.91 6.94 11.81 81.83 5.01 5.07 5.06 81.83 5.08 81.83 5.11 81.83 5.15 81.83 9.76 81.83 81.83 2.83 2.80 2.79 2.78 2.78 2.76 2.75 2.73 2.73 2.72 2.71 2.46 2.35  0 6.206193 -7.439659 2.031914 6.206193 -7.439659 2.031914 0.000000 0.000000 0.000000 0.000000 0.000000 976053595.333763 x 737.996479
VERTEX2 52 6.076989 -7.332800 2.012913
